     3.03           OBSERVATION DATA    M: Mixed            RINEX VERSION / TYPE
RTKCONV 2.4.3 b29                       20200718 225836 UTC PGM / RUN BY / DATE 
log: I:/xxx/xxx/xxxx/xxx                                    COMENT              
format: RTCM 3, station ID: 0                               COMENT              
0000                                                        MARKER NAME         
                                                            MARKER NUMBER       
                                                            MARKER TYPE         
                                                            OBSERVER / AGENCY   
                                                            REC # / TYPE / VERS 
                                                            ANT # / TYPE        
        0.0000        0.0000        0.0000                  APPROX POSITION XYZ 
        0.0000        0.0000        0.0000                  ANTENNA: DELTA H/E/N
G    8 C1C L1C D1C S1C C2W L2W D2W S2W                      SYS / # / OBS TYPES 
R    8 C1C L1C D1C S1C C2P L2P D2P S2P                      SYS / # / OBS TYPES 
E    8 C1B L1B D1B S1B C7Q L7Q D7Q S7Q                      SYS / # / OBS TYPES 
C    8 C1I L1I D1I S1I C7I L7I D7I S7I                      SYS / # / OBS TYPES 
                                                            0.2000 INTERVAL     
  2020     7    18    22    58   36.4000000     GPS         TIME OF FIRST OBS   
  2020     7    18    22    58   48.4000000     GPS         TIME OF LAST OBS    
G                                                           SYS / PHASE SHIFT   
R                                                           SYS / PHASE SHIFT   
E                                                           SYS / PHASE SHIFT   
C                                                           SYS / PHASE SHIFT   
  0                                                         GLONASS SLOT / FRQ #
 C1C    0.000 C1P    0.000 C2C    0.000 C2P    0.000        GLONASS COD/PHS/BIS 
                                                            END OF HEADER       
> 2020  7 18 22 58 36.6000000  0 18
G10  22285056.134   117108759.704       -2697.619          43.000    22285054.061    91253578.005       -2102.041          40.000  
G15  21482355.553   112890541.798         608.777          44.000    21482352.944    87966655.352         474.146          39.000  
G16  23266209.573   122264749.701        1650.093          40.000    23266204.962    95271233.090        1285.790          30.000  
G18  20390308.798   107151798.936        1018.671          44.000    20390303.795    83494908.369         793.776          37.000  
G20  20213720.984   106223822.630       -1003.834          43.000    20213715.266    82771810.960        -782.201          37.000  
G21  21847445.799   114809097.167       -1736.963          45.000    21847440.509    89461646.549       -1353.474          36.000  
G23  20481279.815   107629850.242       -1275.958          44.000    20481275.259    83867420.518        -994.252          37.000  
G26  24428594.305   128372953.746        2971.811          37.000    24428593.752   100031004.070        2315.654          35.000  
G27  22502067.413   118249164.482       -2561.556          43.000    22502064.000    92142216.498       -1996.213          38.000  
R 2  20473991.184   109253143.819        2737.969          47.000    20473990.237    84974667.104        2129.533          41.000  
R 3  19452288.054   104129619.320       -1417.264          46.000    19452281.603    80989704.678       -1102.484          40.000  
R 4  22540675.670   120704291.723       -4256.800          40.000    22540668.934    93881113.912       -3310.844          36.000  
R17  21250048.712   113713316.006        3223.926          44.000    21250045.514    88443698.136        2507.761          39.000  
R18  19195148.399   102465004.639         -56.021          45.000    19195146.702    79695006.269         -43.422          41.000  
E 3  26689118.612   140252255.099       -3105.329          38.000                                                                  
E 5  24155902.776   126940134.230       -1193.749          44.000                                                                  
E 9  23604022.773   124039977.383        1631.929          43.000                                                                  
E15  25024672.658   131505539.235       -2172.226          42.000                                                                  
> 2020  7 18 22 58 36.8000000  0 18
G10  22284953.208   117108219.062       -2697.768          43.000    22284951.225    91253156.768       -2101.959          40.000  
G15  21482378.425   112890662.463         608.927          44.000    21482375.870    87966749.420         474.757          39.000  
G16  23266272.168   122265078.597        1649.862          40.000    23266267.718    95271489.441        1285.611          31.000  
G18  20390347.395   107152001.586        1018.783          44.000    20390342.713    83495066.308         793.858          37.000  
G20  20213682.601   106223620.760       -1003.863          43.000    20213676.901    82771653.645        -782.231          37.000  
G21  21847379.487   114808748.657       -1737.157          45.000    21847373.679    89461374.979       -1353.623          36.000  
G23  20481231.069   107629593.950       -1275.892          44.000    20481226.530    83867220.824        -994.200          37.000  
G26  24428707.238   128373547.036        2971.819          37.000    24428707.345   100031466.369        2315.773          36.000  
G27  22501969.723   118248651.044       -2561.727          43.000    22501966.238    92141816.433       -1996.124          38.000  
R 2  20474093.680   109253690.302        2738.208          47.000    20474092.662    84975092.140        2129.681          41.000  
R 3  19452234.893   104129334.769       -1417.048          46.000    19452228.496    80989483.363       -1102.135          40.000  
R 4  22540516.404   120703439.243       -4256.718          40.000    22540509.792    93880450.884       -3310.732          36.000  
R17  21250169.060   113713959.776        3224.656          44.000    21250165.718    88444198.792        2507.821          39.000  
R18  19195145.987   102464992.343         -55.924          45.000    19195144.468    79694996.704         -43.370          41.000  
E 3  26689000.247   140251632.963       -3105.165          38.000                                                                  
E 5  24155857.139   126939894.444       -1193.339          44.000                                                                  
E 9  23604084.743   124040302.684        1632.107          43.000                                                                  
E15  25024589.710   131505103.675       -2172.323          42.000                                                                  
> 2020  7 18 22 58 37.0000000  0 18
G10  22284850.319   117107678.686       -2697.440          43.000    22284848.478    91252735.683       -2101.900          40.000  
G15  21482401.280   112890783.424         609.337          43.000    21482398.903    87966843.664         474.764          39.000  
G16  23266334.781   122265407.736        1650.116          40.000    23266330.528    95271745.895        1285.805          30.000  
G18  20390386.082   107152204.524        1019.118          44.000    20390381.293    83495224.425         794.119          37.000  
G20  20213644.237   106223419.155       -1003.468          43.000    20213638.518    82771496.550        -781.918          37.000  
G21  21847313.175   114808400.356       -1737.127          45.000    21847307.367    89461103.570       -1353.601          36.000  
G23  20481182.322   107629337.920       -1275.668          43.000    20481177.962    83867021.305        -994.021          37.000  
G26  24428820.313   128374140.528        2971.901          38.000    24428820.206   100031928.863        2315.825          36.000  
G27  22501872.033   118248137.824       -2561.765          43.000    22501868.566    92141416.496       -1996.131          38.000  
R 2  20474196.213   109254237.039        2738.185          47.000    20474195.159    84975517.375        2129.726          41.000  
R 3  19452181.804   104129050.524       -1416.557          46.000    19452175.443    80989262.288       -1101.732          40.000  
R 4  22540357.226   120702587.024       -4256.546          40.000    22540350.615    93879788.026       -3310.792          36.000  
R17  21250289.515   113714603.847        3225.058          44.000    21250285.995    88444699.704        2508.029          39.000  
R18  19195143.736   102464980.342         -55.410          45.000    19195142.306    79694987.363         -43.131          41.000  
E 3  26688881.883   140251011.133       -3104.755          38.000                                                                  
E 5  24155811.573   126939654.931       -1192.996          44.000                                                                  
E 9  23604146.748   124040628.226        1632.145          43.000                                                                  
E15  25024506.780   131504668.338       -2172.300          42.000                                                                  
> 2020  7 18 22 58 37.2000000  0 18
G10  22284747.482   117107138.360       -2697.231          43.000    22284745.856    91252314.654       -2101.751          40.000  
G15  21482424.277   112890904.455         609.672          43.000    21482421.936    87966938.006         475.189          39.000  
G16  23266397.305   122265736.949        1650.324          40.000    23266393.159    95272002.408        1285.969          30.000  
G18  20390424.732   107152407.523        1019.357          44.000    20390420.033    83495382.616         794.305          37.000  
G20  20213605.872   106223217.614       -1003.401          43.000    20213600.350    82771339.501        -781.865          37.000  
G21  21847246.863   114808052.113       -1736.956          45.000    21847241.180    89460832.251       -1353.467          36.000  
G23  20481133.611   107629081.957       -1275.355          43.000    20481129.287    83866821.870        -993.782          36.000  
G26  24428933.370   128374734.070        2971.960          38.000    24428933.191   100032391.342        2315.937          35.000  
G27  22501774.325   118247624.633       -2561.623          43.000    22501771.198    92141016.634       -1996.027          39.000  
R 2  20474298.763   109254783.832        2738.275          47.000    20474297.369    84975942.654        2129.830          40.000  
R 3  19452128.751   104128766.356       -1416.340          46.000    19452122.390    80989041.301       -1101.419          40.000  
R 4  22540198.013   120701734.855       -4256.472          40.000    22540191.652    93879125.230       -3310.546          36.000  
R17  21250409.988   113715247.973        3225.073          44.000    21250406.289    88445200.742        2508.603          39.000  
R18  19195141.520   102464968.416         -55.172          45.000    19195140.126    79694978.087         -42.900          41.000  
E 3  26688763.501   140250389.329       -3104.636          38.000                                                                  
E 5  24155766.024   126939415.481       -1192.869          44.000                                                                  
E 9  23604208.629   124040953.853        1632.458          43.000                                                                  
E15  25024423.939   131504233.030       -2172.204          42.000                                                                  
> 2020  7 18 22 58 37.4000000  0 18
G10  22284644.664   117106597.973       -2696.903          43.000    22284642.966    91251893.561       -2101.512          40.000  
G15  21482447.274   112891025.454         610.074          43.000    21482445.041    87967032.296         475.487          39.000  
G16  23266459.971   122266066.077        1650.786          40.000    23266455.969    95272258.867        1286.334          30.000  
G18  20390463.383   107152610.452        1019.580          44.000    20390458.630    83495540.737         794.484          37.000  
G20  20213567.543   106223016.023       -1002.939          43.000    20213561.914    82771182.428        -781.508          37.000  
G21  21847180.569   114807703.803       -1736.546          45.000    21847174.779    89460560.816       -1353.146          36.000  
G23  20481084.900   107628825.944       -1275.020          44.000    20481080.611    83866622.379        -993.521          36.000  
G26  24429046.320   128375327.539        2972.325          38.000    24429045.927   100032853.804        2316.190          35.000  
G27  22501676.563   118247111.357       -2561.355          43.000    22501673.615    92140616.699       -1995.744          39.000  
R 2  20474401.296   109255330.577        2738.819          47.000    20474399.598    84976367.884        2130.114          40.000  
R 3  19452075.680   104128482.152       -1415.901          46.000    19452069.390    80988820.237       -1101.270          41.000  
R 4  22540038.890   120700882.639       -4255.965          40.000    22540032.618    93878462.393       -3310.144          36.000  
R17  21250530.479   113715892.053        3225.490          44.000    21250526.566    88445701.647        2508.573          39.000  
R18  19195139.304   102464956.427         -54.874          45.000    19195138.071    79694968.792         -42.521          41.000  
E 3  26688645.065   140249767.485       -3104.227          38.000                                                                  
E 5  24155720.423   126939176.000       -1192.393          44.000                                                                  
E 9  23604270.348   124041279.400        1632.719          43.000                                                                  
E15  25024341.063   131503797.619       -2172.137          42.000                                                                  
> 2020  7 18 22 58 37.6000000  0 18
G10  22284541.881   117106057.409       -2696.754          43.000    22284540.273    91251472.364       -2101.259          40.000  
G15  21482470.218   112891146.268         610.104          43.000    21482467.931    87967126.420         475.442          39.000  
G16  23266522.549   122266395.043        1650.995          40.000    23266518.510    95272515.202        1286.490          30.000  
G18  20390501.962   107152813.196        1019.677          44.000    20390497.209    83495698.724         794.558          37.000  
G20  20213529.124   106222814.230       -1002.895          43.000    20213523.656    82771025.201        -781.471          37.000  
G21  21847114.257   114807355.275       -1736.598          45.000    21847108.431    89460289.261       -1353.191          36.000  
G23  20481036.207   107628569.743       -1274.975          44.000    20481031.650    83866422.758        -993.484          37.000  
G26  24429159.252   128375920.831        2972.541          38.000    24429158.359   100033316.055        2315.974          35.000  
G27  22501578.766   118246597.887       -2561.392          43.000    22501576.622    92140216.627       -1995.684          39.000  
R 2  20474503.614   109255877.117        2738.736          46.000    20474501.898    84976792.977        2130.128          40.000  
R 3  19452022.484   104128197.775       -1415.715          46.000    19452016.230    80988599.041       -1101.114          41.000  
R 4  22539879.766   120700030.225       -4255.824          40.000    22539873.780    93877799.407       -3310.166          36.000  
R17  21250650.916   113716535.960        3225.684          45.000    21250646.806    88446202.449        2508.700          39.000  
R18  19195136.999   102464944.277         -54.672          45.000    19195135.730    79694959.308         -42.587          41.000  
E 3  26688526.611   140249145.423       -3104.234          38.000                                                                  
E 5  24155674.785   126938936.320       -1192.326          44.000                                                                  
E 9  23604332.032   124041604.748        1632.711          43.000                                                                  
E15  25024258.115   131503362.027       -2172.032          42.000                                                                  
> 2020  7 18 22 58 37.8000000  0 18
G10  22284439.045   117105516.919       -2696.754          43.000    22284437.544    91251051.184       -2101.460          40.000  
G15  21482493.198   112891267.156         610.126          43.000    21482490.821    87967220.614         475.383          39.000  
G16  23266585.215   122266724.036        1650.778          40.000    23266580.855    95272771.555        1286.326          30.000  
G18  20390540.559   107153016.004        1019.766          44.000    20390535.949    83495856.752         794.625          37.000  
G20  20213490.724   106222612.502       -1002.939          43.000    20213485.309    82770867.989        -781.508          37.000  
G21  21847047.945   114807006.804       -1736.687          45.000    21847042.280    89460017.713       -1353.258          36.000  
G23  20480987.424   107628313.621       -1274.901          44.000    20480983.118    83866223.162        -993.425          37.000  
G26  24429272.220   128376514.174        2972.370          38.000    24429271.041   100033778.414        2316.101          35.000  
G27  22501481.058   118246084.505       -2561.221          43.000    22501479.325    92139816.581       -1995.774          39.000  
R 2  20474605.985   109256423.705        2738.662          46.000    20474604.073    84977218.122        2130.128          40.000  
R 3  19451969.395   104127913.478       -1415.655          46.000    19451962.998    80988377.938       -1101.069          41.000  
R 4  22539720.553   120699177.924       -4255.734          40.000    22539714.692    93877136.518       -3309.905          36.000  
R17  21250771.371   113717179.903        3225.490          45.000    21250767.083    88446703.324        2508.834          39.000  
R18  19195134.730   102464932.184         -54.598          46.000    19195133.443    79694949.879         -42.707          41.000  
E 3  26688408.246   140248523.472       -3104.100          38.000                                                                  
E 5  24155629.148   126938696.711       -1192.393          44.000                                                                  
E 9  23604393.734   124041930.141        1632.629          43.000                                                                  
E15  25024175.167   131502926.484       -2172.055          42.000                                                                  
> 2020  7 18 22 58 38.0000000  0 18
G10  22284336.209   117104976.575       -2696.412          43.000    22284334.815    91250630.133       -2101.147          40.000  
G15  21482516.195   112891388.184         610.380          43.000    21482513.515    87967314.915         475.584          38.000  
G16  23266647.936   122267053.234        1651.211          40.000    23266643.415    95273028.108        1286.662          30.000  
G18  20390579.210   107153218.951        1020.012          44.000    20390574.868    83496014.913         794.819          37.000  
G20  20213452.377   106222410.972       -1002.433          43.000    20213446.998    82770710.962        -781.113          37.000  
G21  21846981.669   114806658.488       -1736.330          45.000    21846976.076    89459746.305       -1352.982          36.000  
G23  20480938.731   107628057.670       -1274.453          44.000    20480934.461    83866023.742        -993.074          37.000  
G26  24429385.188   128377107.690        2972.713          38.000    24429384.188   100034240.886        2316.444          35.000  
G27  22501383.404   118245571.267       -2560.938          43.000    22501381.921    92139416.632       -1995.722          39.000  
R 2  20474708.464   109256970.456        2739.161          47.000    20474706.373    84977643.378        2130.538          40.000  
R 3  19451916.342   104127629.361       -1415.141          46.000    19451910.034    80988156.960       -1100.644          40.000  
R 4  22539561.269   120698325.750       -4255.496          40.000    22539555.568    93876473.669       -3309.943          36.000  
R17  21250891.773   113717823.999        3225.722          45.000    21250887.520    88447204.269        2508.804          39.000  
R18  19195132.550   102464920.237         -54.322          46.000    19195131.281    79694940.617         -42.200          41.000  
E 3  26688289.846   140247901.639       -3103.928          38.000                                                                  
E 5  24155583.582   126938457.248       -1191.983          44.000                                                                  
E 9  23604455.596   124042255.653        1632.905          43.000                                                                  
E15  25024092.254   131502491.071       -2171.801          42.000                                                                  
> 2020  7 18 22 58 38.2000000  0 18
G10  22284233.301   117104436.085       -2696.151          43.000    22284232.050    91250208.967       -2100.968          40.000  
G15  21482539.121   112891509.092         610.804          43.000    21482536.066    87967409.145         476.113          38.000  
G16  23266710.549   122267382.286        1651.486          40.000    23266705.831    95273284.557        1286.878          30.000  
G18  20390617.825   107153421.780        1020.415          44.000    20390613.554    83496172.934         795.132          37.000  
G20  20213413.994   106222209.258       -1002.321          43.000    20213408.669    82770553.771        -781.023          36.000  
G21  21846915.357   114806310.025       -1736.121          44.000    21846909.371    89459474.757       -1352.818          36.000  
G23  20480890.020   107627801.569       -1274.267          43.000    20480885.696    83865824.176        -992.933          37.000  
G26  24429498.121   128377701.032        2972.989          38.000    24429496.780   100034703.243        2316.675          35.000  
G27  22501285.750   118245057.888       -2560.684          43.000    22501284.338    92139016.603       -1995.386          39.000  
R 2  20474811.068   109257517.097        2739.668          47.000    20474808.852    84978068.517        2130.740          40.000  
R 3  19451863.182   104127345.097       -1414.918          46.000    19451856.892    80987935.871       -1100.354          40.000  
R 4  22539401.895   120697473.414       -4255.250          40.000    22539396.481    93875810.743       -3309.831          36.000  
R17  21251012.263   113718467.957        3226.168          45.000    21251007.903    88447705.143        2509.326          39.000  
R18  19195130.280   102464908.173         -53.912          45.000    19195129.047    79694931.236         -41.954          41.000  
E 3  26688171.375   140247279.639       -3103.839          38.000                                                                  
E 5  24155538.051   126938217.647       -1191.752          44.000                                                                  
E 9  23604517.423   124042581.034        1633.180          42.000                                                                  
E15  25024009.306   131502055.505       -2171.600          42.000                                                                  
> 2020  7 18 22 58 38.4000000  0 18
G10  22284130.411   117103895.484       -2696.523          43.000    22284129.089    91249787.728       -2101.236          40.000  
G15  21482562.047   112891629.933         610.774          43.000    21482558.920    87967503.270         475.778          38.000  
G16  23266773.126   122267711.243        1651.315          40.000    23266768.319    95273540.837        1286.744          30.000  
G18  20390656.404   107153624.494        1020.132          44.000    20390651.990    83496330.901         794.908          37.000  
G20  20213375.594   106222007.477       -1002.403          43.000    20213370.054    82770396.536        -781.091          37.000  
G21  21846849.063   114805961.448       -1736.449          44.000    21846842.862    89459203.136       -1353.072          36.000  
G23  20480841.274   107627545.362       -1274.506          43.000    20480836.824    83865624.530        -993.119          37.000  
G26  24429611.035   128378294.263        2972.646          38.000    24429609.695   100035165.453        2316.190          34.000  
G27  22501188.078   118244544.401       -2561.020          43.000    22501186.666    92138616.472       -1995.677          39.000  
R 2  20474913.529   109258063.646        2739.385          47.000    20474911.438    84978493.636        2130.643          40.000  
R 3  19451810.057   104127060.780       -1414.925          46.000    19451803.749    80987714.710       -1100.592          40.000  
R 4  22539242.521   120696620.934       -4255.809          40.000    22539237.375    93875147.731       -3309.913          36.000  
R17  21251132.701   113719111.816        3225.975          45.000    21251128.394    88448205.904        2508.998          39.000  
R18  19195128.029   102464896.021         -54.166          45.000    19195126.885    79694921.784         -42.118          41.000  
E 3  26688052.939   140246657.559       -3103.869          38.000                                                                  
E 5  24155492.468   126937977.965       -1191.923          44.000                                                                  
E 9  23604579.107   124042906.338        1633.016          42.000                                                                  
E15  25023926.323   131501619.821       -2171.966          42.000                                                                  
> 2020  7 18 22 58 38.6000000  0 18
G10  22284027.504   117103354.820       -2696.419          43.000    22284026.074    91249366.455       -2101.080          40.000  
G15  21482585.009   112891750.730         610.879          43.000    21482581.775    87967597.436         476.121          38.000  
G16  23266835.721   122268040.116        1651.278          40.000    23266831.057    95273797.099        1286.714          30.000  
G18  20390695.037   107153827.171        1020.206          44.000    20390690.516    83496488.828         794.968          37.000  
G20  20213337.157   106221805.649       -1002.276          43.000    20213331.689    82770239.286        -780.994          36.000  
G21  21846782.768   114805612.815       -1736.241          44.000    21846776.496    89458931.474       -1352.908          36.000  
G23  20480792.563   107627289.126       -1274.259          44.000    20480788.221    83865424.863        -992.925          37.000  
G26  24429723.753   128378887.383        2972.370          37.000    24429722.002   100035627.660        2316.310          34.000  
G27  22501090.406   118244030.876       -2560.885          43.000    22501089.048    92138216.331       -1995.632          39.000  
R 2  20475015.972   109258610.144        2739.482          47.000    20475013.864    84978918.672        2130.643          40.000  
R 3  19451756.843   104126776.424       -1414.701          46.000    19451750.678    80987493.516       -1100.563          40.000  
R 4  22539083.111   120695768.433       -4255.570          40.000    22539078.501    93874484.673       -3309.958          37.000  
R17  21251253.138   113719755.622        3226.005          45.000    21251248.939    88448706.656        2509.125          39.000  
R18  19195125.688   102464883.838         -53.845          45.000    19195124.598    79694912.299         -41.969          41.000  
E 3  26687934.574   140246035.380       -3104.093          38.000                                                                  
E 5  24155446.902   126937738.235       -1191.708          44.000                                                                  
E 9  23604640.791   124043231.598        1633.166          42.000                                                                  
E15  25023843.375   131501184.082       -2171.838          42.000                                                                  
> 2020  7 18 22 58 38.8000000  0 18
G10  22283924.650   117102814.330       -2696.121          43.000    22283923.381    91248945.278       -2100.924          40.000  
G15  21482608.024   112891871.714         611.326          43.000    21482604.415    87967691.687         476.396          38.000  
G16  23266898.263   122268369.179        1651.598          40.000    23266893.688    95274053.567        1286.960          30.000  
G18  20390733.634   107154030.020        1020.654          44.000    20390728.988    83496646.911         795.318          37.000  
G20  20213298.810   106221603.987       -1001.985          43.000    20213293.432    82770082.159        -780.763          37.000  
G21  21846716.474   114805264.337       -1735.972          44.000    21846710.059    89458659.981       -1352.699          36.000  
G23  20480743.834   107627033.066       -1273.954          44.000    20480739.527    83865225.352        -992.687          37.000  
G26  24429836.524   128379480.678        2972.683          37.000    24429834.630   100036089.936        2316.257          34.000  
G27  22500992.698   118243517.517       -2560.446          43.000    22500991.072    92137816.316       -1995.081          39.000  
R 2  20475118.380   109259156.821        2739.892          47.000    20475116.289    84979343.872        2131.089          40.000  
R 3  19451703.790   104126492.235       -1414.403          46.000    19451697.536    80987272.512       -1100.019          40.000  
R 4  22538923.881   120694916.052       -4255.474          40.000    22538919.342    93873821.705       -3309.950          37.000  
R17  21251373.557   113720399.582        3226.250          45.000    21251369.394    88449207.510        2509.311          39.000  
R18  19195123.454   102464871.828         -53.473          45.000    19195122.257    79694902.970         -41.582          41.000  
E 3  26687816.121   140245413.341       -3103.951          38.000                                                                  
E 5  24155401.371   126937498.655       -1191.484          44.000                                                                  
E 9  23604702.618   124043557.002        1633.493          42.000                                                                  
E15  25023760.444   131500748.493       -2171.496          41.000                                                                  
> 2020  7 18 22 58 39.0000000  0 18
G10  22283821.742   117102273.681       -2696.218          43.000    22283820.437    91248523.979       -2101.103          41.000  
G15  21482631.004   112891992.572         611.386          43.000    21482627.358    87967785.855         476.307          38.000  
G16  23266960.804   122268698.116        1651.725          40.000    23266956.266    95274309.813        1287.064          30.000  
G18  20390772.213   107154232.712        1020.467          44.000    20390767.460    83496804.836         795.169          37.000  
G20  20213260.446   106221402.188       -1001.933          43.000    20213255.192    82769924.888        -780.725          37.000  
G21  21846650.198   114804915.719       -1736.084          45.000    21846643.640    89458388.292       -1352.789          36.000  
G23  20480695.087   107626776.853       -1274.089          44.000    20480690.691    83865025.683        -992.791          37.000  
G26  24429949.296   128380073.807        2972.646          37.000    24429947.187   100036552.094        2316.108          34.000  
G27  22500895.044   118243004.045       -2560.275          43.000    22500893.007    92137416.203       -1994.939          38.000  
R 2  20475220.715   109259703.364        2739.877          47.000    20475218.750    84979768.970        2131.045          40.000  
R 3  19451650.755   104126207.918       -1414.426          46.000    19451644.304    80987051.391       -1100.071          40.000  
R 4  22538764.578   120694063.531       -4255.652          40.000    22538760.200    93873158.633       -3309.764          37.000  
R17  21251493.905   113721043.388        3226.206          45.000    21251489.902    88449708.243        2509.177          40.000  
R18  19195121.096   102464859.667         -53.689          45.000    19195119.934    79694893.523         -41.649          41.000  
E 3  26687697.578   140244791.130       -3104.122          38.000                                                                  
E 5  24155355.787   126937258.943       -1191.603          44.000                                                                  
E 9  23604764.444   124043882.288        1633.456          42.000                                                                  
E15  25023677.407   131500312.739       -2171.697          41.000                                                                  
> 2020  7 18 22 58 39.2000000  0 18
G10  22283718.888   117101733.212       -2696.307          43.000    22283717.690    91248102.843       -2101.043          41.000  
G15  21482654.073   112892113.612         611.288          43.000    21482650.231    87967880.199         476.515          38.000  
G16  23267023.453   122269027.208        1651.538          40.000    23267018.950    95274566.283        1286.915          30.000  
G18  20390810.810   107154435.620        1020.512          44.000    20390805.807    83496962.940         795.206          37.000  
G20  20213222.099   106221200.586       -1002.075          43.000    20213216.649    82769767.792        -780.837          36.000  
G21  21846583.904   114804567.279       -1736.285          45.000    21846577.453    89458116.787       -1352.945          36.000  
G23  20480646.394   107626520.846       -1274.089          44.000    20480641.766    83864826.206        -992.791          37.000  
G26  24430062.246   128380667.088        2972.229          37.000    24430059.637   100037014.443        2316.198          34.000  
G27  22500797.390   118242490.733       -2560.528          43.000    22500795.353    92137016.216       -1995.237          38.000  
R 2  20475323.141   109260250.121        2739.854          47.000    20475321.157    84980194.219        2130.940          40.000  
R 3  19451597.755   104125923.824       -1414.321          46.000    19451591.162    80986830.420       -1100.093          40.000  
R 4  22538605.240   120693211.201       -4255.481          40.000    22538601.059    93872495.714       -3309.719          37.000  
R17  21251614.253   113721687.415        3226.288          45.000    21251610.447    88450209.157        2509.296          40.000  
R18  19195118.808   102464847.746         -53.585          45.000    19195117.754    79694884.244         -41.679          41.000  
E 3  26687579.249   140244169.115       -3104.107          39.000                                                                  
E 5  24155310.311   126937019.415       -1191.655          44.000                                                                  
E 9  23604826.396   124044207.766        1633.441          43.000                                                                  
E15  25023594.459   131499877.185       -2171.861          41.000                                                                  
> 2020  7 18 22 58 39.4000000  0 18
G10  22283616.034   117101192.625       -2696.509          43.000    22283614.747    91247681.607       -2101.222          41.000  
G15  21482677.052   112892234.582         611.304          43.000    21482673.050    87967974.455         476.493          38.000  
G16  23267086.102   122269356.224        1651.434          40.000    23267081.527    95274822.678        1286.833          30.000  
G18  20390849.425   107154638.417        1020.572          44.000    20390844.208    83497120.968         795.251          37.000  
G20  20213183.698   106220998.857       -1002.201          43.000    20213178.337    82769610.594        -780.934          36.000  
G21  21846517.610   114804218.711       -1736.457          45.000    21846511.159    89457845.157       -1353.079          36.000  
G23  20480597.647   107626264.722       -1274.178          44.000    20480593.055    83864626.615        -992.866          37.000  
G26  24430175.124   128381260.286        2972.169          37.000    24430172.122   100037476.681        2316.302          33.000  
G27  22500699.717   118241977.302       -2560.811          43.000    22500697.109    92136616.142       -1995.468          38.000  
R 2  20475425.512   109260796.774        2739.854          46.000    20475423.582    84980619.391        2130.970          40.000  
R 3  19451544.756   104125639.632       -1414.359          46.000    19451538.144    80986609.373       -1100.086          40.000  
R 4  22538445.956   120692358.724       -4255.794          40.000    22538441.935    93871832.705       -3309.980          37.000  
R17  21251734.583   113722331.319        3226.094          44.000    21251730.866    88450709.997        2509.378          40.000  
R18  19195116.503   102464835.704         -53.555          45.000    19195115.556    79694874.878         -41.723          41.000  
E 3  26687460.759   140243546.982       -3104.264          39.000                                                                  
E 5  24155264.780   126936779.800       -1191.596          44.000                                                                  
E 9  23604888.348   124044533.123        1633.232          43.000                                                                  
E15  25023511.547   131499441.483       -2172.114          41.000                                                                  
> 2020  7 18 22 58 39.6000000  0 18
G10  22283513.215   117100652.102       -2696.635          43.000    22283511.821    91247260.434       -2101.252          41.000  
G15  21482700.068   112892355.692         611.698          43.000    21482696.172    87968068.815         476.560          38.000  
G16  23267148.769   122269685.326        1651.531          40.000    23267144.140    95275079.077        1286.907          29.000  
G18  20390887.969   107154841.357        1020.854          44.000    20390882.805    83497279.110         795.474          37.000  
G20  20213145.351   106220797.266       -1001.829          43.000    20213140.008    82769453.515        -780.643          36.000  
G21  21846451.352   114803870.245       -1736.285          45.000    21846444.937    89457573.637       -1352.945          36.000  
G23  20480548.901   107626008.726       -1273.925          44.000    20480544.308    83864427.133        -992.665          37.000  
G26  24430287.985   128381853.467        2971.901          37.000    24430284.536   100037938.948        2316.026          33.000  
G27  22500602.063   118241463.967       -2560.632          43.000    22500599.347    92136216.140       -1995.260          38.000  
R 2  20475528.009   109261343.574        2740.234          47.000    20475526.133    84981044.668        2131.134          40.000  
R 3  19451491.828   104125355.566       -1414.113          46.000    19451485.073    80986388.446       -1099.870          41.000  
R 4  22538286.832   120691506.364       -4255.750          40.000    22538282.704    93871169.737       -3309.928          37.000  
R17  21251854.967   113722975.357        3226.302          44.000    21251851.321    88451210.890        2509.363          40.000  
R18  19195114.234   102464823.810         -53.205          45.000    19195113.323    79694865.621         -41.418          41.000  
E 3  26687342.502   140242924.926       -3104.279          39.000                                                                  
E 5  24155219.286   126936540.308       -1191.357          44.000                                                                  
E 9  23604950.390   124044858.615        1633.530          43.000                                                                  
E15  25023428.617   131499005.856       -2172.122          41.000                                                                  
> 2020  7 18 22 58 39.8000000  0 18
G10  22283410.361   117100111.668       -2696.754          43.000    22283408.824    91246839.319       -2101.296          41.000  
G15  21482723.154   112892476.923         611.721          43.000    21482719.241    87968163.278         476.694          38.000  
G16  23267211.471   122270014.480        1651.196          40.000    23267206.736    95275335.574        1286.647          29.000  
G18  20390926.566   107155044.348        1020.534          44.000    20390921.509    83497437.298         795.221          37.000  
G20  20213107.004   106220595.740       -1002.179          43.000    20213101.429    82769296.500        -780.912          36.000  
G21  21846385.075   114803521.844       -1736.479          45.000    21846378.732    89457302.167       -1353.094          36.000  
G23  20480500.172   107625752.784       -1274.155          44.000    20480495.580    83864227.688        -992.843          37.000  
G26  24430400.953   128382446.772        2971.938          37.000    24430397.004   100038401.231        2315.676          33.000  
G27  22500504.373   118240950.720       -2560.721          43.000    22500501.282    92135816.206       -1995.364          38.000  
R 2  20475630.524   109261890.456        2740.041          47.000    20475628.487    84981470.051        2131.306          40.000  
R 3  19451438.810   104125071.607       -1414.157          46.000    19451432.217    80986167.603       -1099.884          41.000  
R 4  22538127.637   120690654.016       -4256.293          40.000    22538123.545    93870506.818       -3310.204          37.000  
R17  21251975.386   113723619.459        3226.072          45.000    21251971.776    88451711.870        2509.214          40.000  
R18  19195112.018   102464811.989         -53.488          45.000    19195111.089    79694856.456         -41.425          41.000  
E 3  26687224.263   140242302.885       -3104.853          39.000                                                                  
E 5  24155173.809   126936300.866       -1191.767          44.000                                                                  
E 9  23605012.395   124045184.206        1633.478          43.000                                                                  
E15  25023345.651   131498570.319       -2172.271          41.000                                                                  
> 2020  7 18 22 58 40.0000000  0 18
G10  22283307.596   117099571.527       -2696.724          43.000    22283305.827    91246418.423       -2101.363          40.000  
G15  21482746.205   112892598.456         611.698          43.000    21482742.524    87968257.982         476.724          38.000  
G16  23267274.155   122270343.995        1651.636          40.000    23267269.474    95275592.383        1286.990          30.000  
G18  20390965.252   107155247.667        1020.579          44.000    20390960.213    83497595.708         795.259          37.000  
G20  20213068.657   106220394.543       -1002.053          43.000    20213063.243    82769139.668        -780.815          36.000  
G21  21846318.799   114803173.771       -1736.315          45.000    21846312.652    89457030.935       -1352.967          36.000  
G23  20480451.532   107625497.158       -1274.118          44.000    20480446.869    83864028.509        -992.814          37.000  
G26  24430513.850   128383040.387        2972.139          37.000    24430509.615   100038863.740        2315.594          33.000  
G27  22500406.719   118240437.837       -2560.334          43.000    22500403.521    92135416.561       -1995.095          38.000  
R 2  20475733.163   109262437.714        2740.361          47.000    20475731.090    84981895.680        2131.440          40.000  
R 3  19451385.793   104124787.972       -1414.091          46.000    19451379.307    80985946.984       -1099.899          41.000  
R 4  22537968.638   120689801.967       -4256.271          40.000    22537964.528    93869844.113       -3310.345          37.000  
R17  21252095.895   113724263.868        3226.027          45.000    21252092.392    88452213.070        2509.087          40.000  
R18  19195109.820   102464800.539         -53.197          45.000    19195108.802    79694847.530         -41.395          41.000  
E 3  26687106.024   140241681.151       -3104.883          39.000                                                                  
E 5  24155128.333   126936061.752       -1191.670          44.000                                                                  
E 9  23605074.543   124045510.127        1633.546          43.000                                                                  
E15  25023262.721   131498135.117       -2172.114          41.000                                                                  
> 2020  7 18 22 58 40.2000000  0 18
G10  22283204.832   117099031.342       -2696.643          43.000    22283203.313    91245997.504       -2101.236          40.000  
G15  21482769.310   112892719.887         611.386          43.000    21482765.450    87968352.619         476.575          38.000  
G16  23267336.822   122270673.507        1652.008          40.000    23267332.319    95275849.095        1287.280          30.000  
G18  20391003.957   107155450.901        1020.363          44.000    20390998.900    83497754.084         795.094          37.000  
G20  20213030.364   106220193.287       -1001.866          43.000    20213024.950    82768982.902        -780.673          36.000  
G21  21846252.541   114802825.684       -1736.106          45.000    21846246.465    89456759.703       -1352.803          36.000  
G23  20480402.911   107625241.485       -1274.141          44.000    20480398.122    83863829.304        -992.836          37.000  
G26  24430626.817   128383633.935        2972.229          37.000    24430622.725   100039326.295        2316.160          33.000  
G27  22500309.136   118239924.951       -2559.962          43.000    22500306.188    92135016.898       -1994.932          38.000  
R 2  20475835.714   109262984.874        2740.167          47.000    20475833.659    84982321.272        2131.388          40.000  
R 3  19451332.776   104124504.261       -1414.217          46.000    19451326.289    80985726.315       -1099.937          41.000  
R 4  22537809.604   120688949.852       -4256.196          40.000    22537805.262    93869181.334       -3310.666          36.000  
R17  21252216.368   113724908.161        3225.714          45.000    21252212.812    88452714.175        2508.819          40.000  
R18  19195107.533   102464789.012         -53.294          45.000    19195106.657    79694838.551         -41.470          41.000  
E 3  26686987.856   140241059.289       -3105.091          39.000                                                                  
E 5  24155082.820   126935822.533       -1191.923          44.000                                                                  
E 9  23605136.728   124045835.959        1633.322          43.000                                                                  
E15  25023179.898   131497699.897       -2171.697          41.000                                                                  
> 2020  7 18 22 58 40.4000000  0 18
G10  22283101.942   117098490.960       -2696.434          43.000    22283100.566    91245576.414       -2101.125          40.000  
G15  21482792.379   112892841.097         611.386          43.000    21482788.680    87968447.069         476.471          38.000  
G16  23267399.453   122271002.840        1652.284          40.000    23267394.950    95276105.707        1287.496          30.000  
G18  20391042.607   107155653.886        1020.318          44.000    20391037.693    83497912.240         795.057          37.000  
G20  20212992.035   106219991.816       -1001.822          43.000    20212986.889    82768825.896        -780.636          36.000  
G21  21846186.283   114802477.397       -1735.897          45.000    21846180.028    89456488.297       -1352.647          36.000  
G23  20480354.218   107624985.607       -1273.947          44.000    20480349.322    83863629.896        -992.680          37.000  
G26  24430739.839   128384227.278        2972.385          38.000    24430734.854   100039788.613        2316.041          33.000  
G27  22500211.500   118239411.904       -2559.589          42.000    22500208.355    92134617.108       -1994.663          38.000  
R 2  20475938.210   109263531.825        2740.302          47.000    20475936.191    84982746.650        2131.313          40.000  
R 3  19451279.687   104124220.332       -1414.113          46.000    19451273.147    80985505.496       -1099.817          41.000  
R 4  22537650.516   120688097.483       -4256.315          41.000    22537646.049    93868518.411       -3310.397          36.000  
R17  21252336.805   113725552.160        3225.453          45.000    21252333.177    88453215.061        2508.573          40.000  
R18  19195105.317   102464777.247         -53.205          45.000    19195104.460    79694829.405         -41.373          41.000  
E 3  26686869.616   140240437.174       -3105.292          39.000                                                                  
E 5  24155037.272   126935583.041       -1192.132          44.000                                                                  
E 9  23605198.840   124046161.539        1633.292          43.000                                                                  
E15  25023096.914   131497264.510       -2171.399          41.000                                                                  
> 2020  7 18 22 58 40.6000000  0 18
G10  22282998.998   117097950.359       -2696.665          43.000    22282997.694    91245155.161       -2101.348          40.000  
G15  21482815.394   112892962.090         611.341          43.000    21482811.517    87968541.331         476.270          38.000  
G16  23267462.084   122271332.009        1652.164          40.000    23267457.706    95276362.259        1287.407          30.000  
G18  20391081.276   107155856.653        1020.162          44.000    20391076.165    83498070.272         794.938          37.000  
G20  20212953.706   106219790.117       -1002.224          43.000    20212948.292    82768668.726        -780.949          36.000  
G21  21846120.042   114802128.911       -1736.039          44.000    21846113.877    89456216.769       -1352.751          35.000  
G23  20480305.471   107624729.518       -1274.111          43.000    20480301.004    83863430.357        -992.806          37.000  
G26  24430852.753   128384820.397        2972.027          38.000    24430847.196   100040250.802        2315.795          33.000  
G27  22500113.846   118238898.651       -2559.894          42.000    22500110.665    92134217.157       -1994.865          38.000  
R 2  20476040.600   109264078.558        2740.234          47.000    20476038.634    84983171.887        2131.246          40.000  
R 3  19451226.652   104123936.203       -1414.217          46.000    19451220.147    80985284.506       -1099.937          41.000  
R 4  22537491.357   120687244.886       -4256.569          41.000    22537486.657    93867855.243       -3310.778          36.000  
R17  21252457.224   113726195.912        3225.133          45.000    21252453.454    88453715.780        2508.603          39.000  
R18  19195103.102   102464765.282         -53.376          45.000    19195102.244    79694820.103         -41.552          41.000  
E 3  26686751.252   140239814.836       -3105.523          39.000                                                                  
E 5  24154991.742   126935343.326       -1192.326          44.000                                                                  
E 9  23605260.828   124046486.902        1633.143          43.000                                                                  
E15  25023014.020   131496828.891       -2171.674          41.000                                                                  
> 2020  7 18 22 58 40.8000000  0 18
G10  22282896.234   117097410.238       -2696.509          43.000    22282894.983    91244734.304       -2101.006          40.000  
G15  21482838.499   112893083.597         611.691          43.000    21482834.443    87968635.972         476.433          38.000  
G16  23267524.840   122271661.671        1652.425          40.000    23267520.730    95276619.059        1287.608          30.000  
G18  20391119.873   107156059.952        1020.594          44.000    20391114.995    83498228.666         795.273          37.000  
G20  20212915.466   106219588.966       -1001.621          43.000    20212910.034    82768511.969        -780.480          36.000  
G21  21846053.802   114801780.941       -1735.741          44.000    21846047.619    89455945.594       -1352.520          36.000  
G23  20480256.814   107624473.942       -1273.693          43.000    20480252.597    83863231.177        -992.486          36.000  
G26  24430965.703   128385414.016        2972.124          37.000    24430959.825   100040713.387        2315.967          33.000  
G27  22500016.263   118238385.927       -2559.604          42.000    22500012.832    92133817.659       -1994.455          38.000  
R 2  20476143.007   109264625.828        2740.547          46.000    20476141.256    84983597.523        2131.440          40.000  
R 3  19451173.652   104123652.606       -1413.710          46.000    19451167.148    80985063.943       -1099.438          41.000  
R 4  22537332.251   120686392.787       -4256.353          41.000    22537327.444    93867192.496       -3310.501          36.000  
R17  21252577.643   113726840.142        3225.274          45.000    21252573.873    88454216.843        2508.640          39.000  
R18  19195101.029   102464753.857         -52.937          45.000    19195100.260    79694811.214         -41.127          41.000  
E 3  26686632.852   140239192.985       -3105.135          38.000                                                                  
E 5  24154946.301   126935104.121       -1191.894          44.000                                                                  
E 9  23605322.869   124046812.743        1633.255          43.000                                                                  
E15  25022931.161   131496393.771       -2171.556          41.000                                                                  
> 2020  7 18 22 58 41.0000000  0 18
G10  22282793.397   117096870.100       -2696.375          43.000    22282792.004    91244313.403       -2101.169          40.000  
G15  21482861.621   112893205.066         611.780          43.000    21482857.708    87968730.637         476.634          38.000  
G16  23267587.632   122271991.336        1652.671          40.000    23267583.558    95276876.000        1287.802          30.000  
G18  20391158.524   107156263.194        1020.579          44.000    20391153.770    83498387.076         795.259          37.000  
G20  20212877.191   106219387.769       -1001.554          43.000    20212871.669    82768355.214        -780.427          36.000  
G21  21845987.561   114801432.907       -1735.726          44.000    21845981.271    89455674.426       -1352.513          36.000  
G23  20480208.228   107624218.334       -1273.641          43.000    20480203.689    83863032.064        -992.441          37.000  
G26  24431078.689   128386007.564        2972.139          37.000    24431073.061   100041175.924        2316.056          34.000  
G27  22499918.770   118237873.161       -2559.380          43.000    22499915.017    92133418.092       -1994.440          38.000  
R 2  20476245.415   109265173.059        2740.592          46.000    20476243.914    84984023.161        2131.619          40.000  
R 3  19451120.617   104123368.979       -1413.591          46.000    19451114.077    80984843.318       -1099.564          41.000  
R 4  22537173.270   120685540.618       -4256.450          41.000    22537168.321    93866529.731       -3310.360          36.000  
R17  21252698.116   113727484.369        3225.580          45.000    21252694.239    88454717.904        2508.804          39.000  
R18  19195099.063   102464742.398         -52.743          46.000    19195098.223    79694802.293         -41.016          41.000  
E 3  26686514.434   140238571.041       -3105.270          38.000                                                                  
E 5  24154900.824   126934864.879       -1191.849          44.000                                                                  
E 9  23605384.768   124047138.572        1633.568          43.000                                                                  
E15  25022848.266   131495958.637       -2171.339          41.000                                                                  
> 2020  7 18 22 58 41.2000000  0 18
G10  22282690.668   117096329.965       -2696.776          43.000    22282689.310    91243892.539       -2101.289          41.000  
G15  21482884.690   112893326.622         611.885          42.000    21482880.938    87968825.363         476.672          38.000  
G16  23267650.388   122272320.974        1652.068          40.000    23267646.224    95277132.829        1287.332          30.000  
G18  20391197.246   107156466.487        1020.497          44.000    20391192.582    83498545.447         795.199          37.000  
G20  20212838.880   106219186.609       -1001.762          43.000    20212833.644    82768198.458        -780.591          36.000  
G21  21845921.321   114801084.893       -1736.196          44.000    21845915.227    89455403.221       -1352.878          36.000  
G23  20480159.588   107623962.753       -1273.902          43.000    20480155.371    83862832.880        -992.650          36.000  
G26  24431191.514   128386601.170        2971.834          37.000    24431186.743   100041638.411        2315.408          34.000  
G27  22499821.241   118237360.378       -2560.014          43.000    22499817.363    92133018.555       -1994.596          38.000  
R 2  20476347.876   109265720.347        2740.524          46.000    20476346.625    84984448.813        2131.432          40.000  
R 3  19451067.671   104123085.418       -1413.718          46.000    19451061.167    80984622.792       -1099.460          40.000  
R 4  22537014.165   120684688.476       -4256.748          41.000    22537009.358    93865866.947       -3310.673          36.000  
R17  21252818.643   113728128.662        3225.639          45.000    21252814.497    88455219.009        2508.700          39.000  
R18  19195097.026   102464731.003         -52.907          46.000    19195096.008    79694793.416         -41.246          41.000  
E 3  26686396.069   140237949.137       -3105.679          38.000                                                                  
E 5  24154855.294   126934625.712       -1191.789          43.000                                                                  
E 9  23605446.559   124047464.446        1633.404          42.000                                                                  
E15  25022765.408   131495523.473       -2171.980          41.000                                                                  
> 2020  7 18 22 58 41.4000000  0 18
G10  22282587.957   117095789.921       -2696.561          43.000    22282586.528    91243471.723       -2101.192          41.000  
G15  21482907.831   112893448.331         612.369          43.000    21482904.060    87968920.197         477.104          38.000  
G16  23267713.162   122272650.680        1652.098          40.000    23267709.052    95277389.706        1287.354          30.000  
G18  20391235.986   107156669.915        1020.892          44.000    20391231.322    83498703.983         795.504          37.000  
G20  20212800.640   106218985.553       -1001.449          43.000    20212795.315    82768041.790        -780.345          36.000  
G21  21845855.080   114800736.950       -1736.017          44.000    21845849.005    89455132.108       -1352.736          36.000  
G23  20480110.913   107623707.315       -1273.515          43.000    20480106.767    83862633.830        -992.344          37.000  
G26  24431304.554   128387194.753        2971.461          37.000    24431300.658   100042100.957        2315.505          35.000  
G27  22499723.747   118236847.677       -2559.887          43.000    22499719.834    92132619.025       -1994.753          38.000  
R 2  20476450.479   109266267.760        2740.890          46.000    20476449.354    84984874.581        2131.902          40.000  
R 3  19451014.743   104122801.986       -1413.286          46.000    19451008.256    80984402.337       -1099.169          40.000  
R 4  22536855.023   120683836.439       -4256.479          41.000    22536850.431    93865204.221       -3310.800          36.000  
R17  21252939.116   113728773.065        3225.848          45.000    21252935.078    88455720.230        2509.087          39.000  
R18  19195094.882   102464719.714         -52.698          46.000    19195093.863    79694784.666         -40.844          41.000  
E 3  26686277.723   140237327.322       -3105.411          38.000                                                                  
E 5  24154809.746   126934386.640       -1191.491          43.000                                                                  
E 9  23605508.511   124047790.448        1633.732          42.000                                                                  
E15  25022682.478   131495088.373       -2171.824          41.000                                                                  
> 2020  7 18 22 58 41.6000000  0 18
G10  22282485.193   117095249.774       -2696.717          43.000    22282483.799    91243050.830       -2101.333          41.000  
G15  21482931.042   112893569.955         612.190          43.000    21482926.986    87969014.987         477.156          38.000  
G16  23267775.864   122272980.327        1652.209          40.000    23267771.665    95277646.642        1287.436          30.000  
G18  20391274.654   107156873.252        1020.735          44.000    20391270.205    83498862.434         795.385          37.000  
G20  20212762.400   106218784.408       -1001.784          43.000    20212756.932    82767885.077        -780.606          36.000  
G21  21845788.858   114800388.921       -1736.084          44.000    21845782.693    89454860.917       -1352.789          36.000  
G23  20480062.238   107623451.757       -1273.761          43.000    20480058.199    83862434.721        -992.538          37.000  
G26  24431417.593   128387788.243        2971.342          37.000    24431414.180   100042563.436        2315.542          35.000  
G27  22499626.182   118236334.932       -2559.664          43.000    22499622.269    92132219.511       -1994.492          38.000  
R 2  20476552.994   109266815.104        2740.942          46.000    20476551.976    84985300.310        2131.924          40.000  
R 3  19450961.833   104122518.481       -1413.360          46.000    19450955.328    80984181.834       -1099.289          40.000  
R 4  22536695.774   120682984.291       -4256.681          41.000    22536691.253    93864541.479       -3310.583          36.000  
R17  21253059.660   113729417.420        3225.937          45.000    21253055.372    88456221.398        2508.961          39.000  
R18  19195092.827   102464708.387         -52.542          46.000    19195091.773    79694775.842         -40.941          41.000  
E 3  26686159.466   140236705.427       -3105.561          38.000                                                                  
E 5  24154764.108   126934147.500       -1191.692          44.000                                                                  
E 9  23605570.498   124048116.395        1633.792          42.000                                                                  
E15  25022599.530   131494653.183       -2171.921          41.000                                                                  
> 2020  7 18 22 58 41.8000000  0 18
G10  22282382.428   117094709.492       -2696.806          43.000    22282380.909    91242629.810       -2101.535          41.000  
G15  21482954.201   112893691.515         612.458          43.000    21482950.305    87969109.693         477.178          38.000  
G16  23267838.602   122273309.824        1652.172          40.000    23267834.421    95277903.377        1287.407          30.000  
G18  20391313.341   107157076.497        1020.817          44.000    20391308.766    83499020.780         795.445          37.000  
G20  20212724.196   106218583.175       -1001.583          43.000    20212718.514    82767728.252        -780.450          36.000  
G21  21845722.617   114800040.731       -1736.375          44.000    21845716.846    89454589.614       -1353.012          36.000  
G23  20480013.563   107623196.102       -1273.731          43.000    20480009.757    83862235.489        -992.516          37.000  
G26  24431530.543   128388381.617        2971.498          37.000    24431527.523   100043025.795        2315.341          36.000  
G27  22499528.564   118235822.055       -2559.708          43.000    22499524.919    92131819.837       -1994.649          38.000  
R 2  20476655.437   109267362.362        2741.016          46.000    20476654.508    84985725.927        2131.798          40.000  
R 3  19450908.905   104122234.869       -1413.345          46.000    19450902.400    80983961.221       -1099.400          40.000  
R 4  22536536.615   120682132.021       -4256.718          41.000    22536531.969    93863878.602       -3310.703          36.000  
R17  21253180.187   113730061.656        3225.982          45.000    21253175.523    88456722.488        2509.147          38.000  
R18  19195090.575   102464696.926         -52.579          46.000    19195089.664    79694766.944         -40.792          41.000  
E 3  26686041.119   140236083.394       -3105.605          38.000                                                                  
E 5  24154718.507   126933908.266       -1191.506          43.000                                                                  
E 9  23605632.539   124048442.242        1633.896          42.000                                                                  
E15  25022516.760   131494217.848       -2172.137          41.000                                                                  
> 2020  7 18 22 58 42.0000000  0 18
G10  22282279.592   117094169.234       -2696.874          43.000    22282277.876    91242208.834       -2101.505          40.000  
G15  21482977.395   112893813.136         612.675          43.000    21482973.446    87969204.479         477.462          38.000  
G16  23267901.287   122273639.351        1651.964          40.000    23267897.087    95278160.172        1287.250          30.000  
G18  20391352.027   107157279.787        1020.959          44.000    20391347.346    83499179.185         795.556          37.000  
G20  20212685.939   106218381.934       -1001.703          43.000    20212680.274    82767571.449        -780.547          36.000  
G21  21845656.359   114799692.568       -1736.427          44.000    21845650.516    89454318.306       -1353.057          36.000  
G23  20479964.887   107622940.461       -1273.731          43.000    20479961.314    83862036.284        -992.516          37.000  
G26  24431643.458   128388974.989        2971.059          37.000    24431640.956   100043488.174        2315.333          36.000  
G27  22499430.928   118235309.170       -2559.992          43.000    22499427.783    92131420.208       -1994.738          38.000  
R 2  20476757.916   109267909.710        2741.277          46.000    20476757.076    84986151.656        2132.117          40.000  
R 3  19450855.905   104121951.329       -1413.077          46.000    19450849.472    80983740.711       -1099.028          41.000  
R 4  22536377.402   120681279.765       -4256.822          41.000    22536373.006    93863215.753       -3310.718          36.000  
R17  21253300.678   113730705.967        3226.131          45.000    21253295.960    88457223.633        2509.266          38.000  
R18  19195088.288   102464685.536         -52.444          46.000    19195087.591    79694758.081         -40.717          41.000  
E 3  26685922.862   140235461.388       -3105.657          39.000                                                                  
E 5  24154672.851   126933669.073       -1191.446          44.000                                                                  
E 9  23605694.670   124048768.127        1633.985          42.000                                                                  
E15  25022433.866   131493782.523       -2172.367          41.000                                                                  
> 2020  7 18 22 58 42.2000000  0 18
G10  22282176.773   117093628.902       -2697.343          43.000    22282174.986    91241787.815       -2101.788          41.000  
G15  21483000.571   112893934.883         613.382          43.000    21482996.693    87969299.379         478.169          38.000  
G16  23267963.971   122273968.881        1651.926          40.000    23267959.879    95278416.910        1287.221          31.000  
G18  20391390.660   107157483.144        1021.376          44.000    20391386.121    83499337.643         795.884          37.000  
G20  20212647.681   106218180.751       -1001.516          43.000    20212641.892    82767414.665        -780.398          36.000  
G21  21845590.118   114799344.422       -1736.330          44.000    21845584.061    89454047.035       -1352.982          36.000  
G23  20479916.266   107622684.836       -1273.693          43.000    20479912.335    83861837.084        -992.486          37.000  
G26  24431756.408   128389568.288        2970.456          38.000    24431754.406   100043950.457        2314.730          36.000  
G27  22499333.327   118234796.342       -2559.582          43.000    22499330.575    92131020.589       -1994.596          39.000  
R 2  20476860.502   109268457.158        2741.970          46.000    20476859.573    84986577.433        2132.669          40.000  
R 3  19450803.013   104121667.819       -1412.988          46.000    19450796.562    80983520.179       -1099.095          41.000  
R 4  22536218.207   120680427.450       -4257.284          41.000    22536214.115    93862552.818       -3311.299          36.000  
R17  21253421.079   113731350.349        3226.586          44.000    21253416.290    88457724.796        2509.363          38.000  
R18  19195086.037   102464674.221         -52.005          46.000    19195085.429    79694749.271         -40.427          41.000  
E 3  26685804.712   140234839.317       -3106.007          39.000                                                                  
E 5  24154627.214   126933429.928       -1191.260          43.000                                                                  
E 9  23605756.658   124049094.136        1634.723          42.000                                                                  
E15  25022351.061   131493347.206       -2172.144          41.000                                                                  
> 2020  7 18 22 58 42.4000000  0 18
G10  22282073.937   117093088.341       -2698.520          43.000    22282072.114    91241366.590       -2102.816          41.000  
G15  21483023.783   112894056.710         614.284          43.000    21483019.798    87969394.272         478.512          38.000  
G16  23268026.691   122274298.135        1650.562          40.000    23268022.546    95278673.467        1286.155          30.000  
G18  20391429.364   107157686.472        1021.525          44.000    20391424.772    83499496.083         795.996          37.000  
G20  20212609.370   106217979.398       -1002.194          43.000    20212603.509    82767257.769        -780.927          36.000  
G21  21845523.860   114798996.100       -1737.135          45.000    21845518.071    89453775.586       -1353.608          36.000  
G23  20479867.644   107622429.043       -1274.483          44.000    20479863.856    83861637.758        -993.097          37.000  
G26  24431869.322   128390161.284        2969.151          38.000    24431867.499   100044412.486        2313.262          36.000  
G27  22499235.655   118234283.357       -2560.349          43.000    22499233.350    92130620.871       -1994.962          39.000  
R 2  20476963.231   109269004.667        2742.834          46.000    20476962.230    84987003.291        2133.384          40.000  
R 3  19450750.049   104121384.201       -1413.360          46.000    19450743.562    80983299.604       -1099.274          41.000  
R 4  22536059.083   120679574.887       -4258.499          41.000    22536055.027    93861889.723       -3312.014          36.000  
R17  21253541.373   113731994.728        3226.921          44.000    21253536.745    88458226.012        2509.989          38.000  
R18  19195083.982   102464662.829         -52.042          46.000    19195083.267    79694740.431         -40.345          41.000  
E 3  26685686.348   140234217.035       -3107.006          39.000                                                                  
E 5  24154581.683   126933190.741       -1191.178          43.000                                                                  
E 9  23605818.663   124049420.259        1635.870          42.000                                                                  
E15  25022268.292   131492911.690       -2173.068          42.000                                                                  
> 2020  7 18 22 58 42.6000000  0 18
G10  22281971.119   117092547.939       -2699.623          43.000    22281969.153    91240945.497       -2103.591          41.000  
G15  21483047.066   112894179.038         614.992          43.000    21483043.063    87969489.600         479.213          38.000  
G16  23268089.430   122274627.588        1649.713          40.000    23268085.141    95278930.239        1285.492          31.000  
G18  20391468.122   107157890.237        1021.838          44.000    20391463.369    83499654.859         796.242          37.000  
G20  20212571.041   106217778.338       -1002.597          43.000    20212565.466    82767101.083        -781.240          37.000  
G21  21845457.584   114798647.992       -1738.036          45.000    21845451.705    89453504.340       -1354.309          36.000  
G23  20479819.040   107622173.531       -1274.863          44.000    20479815.395    83861438.665        -993.395          37.000  
G26  24431982.201   128390754.427        2968.160          38.000    24431980.843   100044874.662        2312.472          36.000  
G27  22499138.090   118233770.668       -2560.744          43.000    22499136.017    92130221.362       -1995.475          39.000  
R 2  20477065.942   109269552.696        2743.535          47.000    20477064.924    84987429.525        2133.779          40.000  
R 3  19450697.121   104121100.945       -1413.338          46.000    19450690.760    80983079.289       -1099.303          41.000  
R 4  22535899.924   120678722.530       -4259.251          41.000    22535895.993    93861226.813       -3312.513          36.000  
R17  21253661.721   113732639.532        3227.167          44.000    21253657.308    88458727.512        2510.115          38.000  
R18  19195081.945   102464651.862         -51.730          46.000    19195081.176    79694731.867         -40.494          41.000  
E 3  26685567.983   140233594.979       -3107.706          39.000                                                                  
E 5  24154536.260   126932951.944       -1190.940          43.000                                                                  
E 9  23605880.847   124049746.904        1636.652          42.000                                                                  
E15  25022185.558   131492476.409       -2173.985          42.000                                                                  
> 2020  7 18 22 58 42.8000000  0 18
G10  22281868.211   117092007.379       -2699.176          43.000    22281866.102    91240524.274       -2103.293          41.000  
G15  21483070.260   112894301.326         615.312          43.000    21483066.079    87969584.900         479.637          38.000  
G16  23268151.971   122274956.889        1650.138          40.000    23268147.683    95279186.727        1285.827          31.000  
G18  20391506.862   107158093.900        1022.151          44.000    20391501.913    83499813.550         796.488          37.000  
G20  20212532.712   106217577.147       -1002.149          43.000    20212527.298    82766944.329        -780.890          37.000  
G21  21845391.290   114798299.758       -1737.492          45.000    21845385.411    89453233.012       -1353.884          36.000  
G23  20479770.401   107621917.856       -1274.625          43.000    20479766.523    83861239.447        -993.209          37.000  
G26  24432095.115   128391347.318        2968.019          38.000    24432093.882   100045336.682        2312.755          36.000  
G27  22499040.543   118233257.799       -2560.558          43.000    22499038.649    92129821.726       -1995.267          39.000  
R 2  20477168.636   109270100.634        2743.453          47.000    20477167.653    84987855.729        2133.936          40.000  
R 3  19450644.175   104120817.575       -1412.950          46.000    19450637.831    80982858.883       -1099.050          41.000  
R 4  22535740.532   120677869.981       -4259.087          41.000    22535736.762    93860563.664       -3312.901          36.000  
R17  21253782.123   113733284.252        3227.547          44.000    21253777.638    88459228.963        2510.235          38.000  
R18  19195079.943   102464640.762         -51.536          46.000    19195079.014    79694723.240         -40.174          41.000  
E 3  26685449.601   140232972.753       -3107.430          39.000                                                                  
E 5  24154490.855   126932713.057       -1190.679          43.000                                                                  
E 9  23605943.014   124050073.476        1636.674          42.000                                                                  
E15  25022102.789   131492040.963       -2173.559          42.000                                                                  
> 2020  7 18 22 58 43.0000000  0 18
G10  22281765.375   117091466.783       -2699.049          43.000    22281763.052    91240103.024       -2103.248          40.000  
G15  21483093.561   112894423.545         614.783          43.000    21483089.183    87969680.138         479.056          38.000  
G16  23268214.584   122275286.096        1650.049          40.000    23268210.439    95279443.366        1285.753          30.000  
G18  20391545.602   107158297.512        1021.801          44.000    20391540.635    83499972.197         796.212          37.000  
G20  20212494.436   106217375.890       -1002.388          43.000    20212488.825    82766787.528        -781.076          37.000  
G21  21845325.014   114797951.439       -1737.671          44.000    21845319.349    89452961.617       -1354.025          36.000  
G23  20479721.797   107621662.180       -1274.491          43.000    20479717.705    83861040.246        -993.104          37.000  
G26  24432207.994   128391940.288        2968.898          38.000    24432206.939   100045798.680        2313.016          36.000  
G27  22498942.942   118232744.887       -2560.781          43.000    22498940.816    92129422.029       -1995.527          39.000  
R 2  20477271.204   109270648.517        2743.095          47.000    20477270.364    84988281.881        2133.705          40.000  
R 3  19450591.175   104120534.160       -1413.189          46.000    19450584.921    80982638.457       -1099.050          41.000  
R 4  22535581.248   120677017.427       -4258.789          40.000    22535577.620    93859900.573       -3312.312          36.000  
R17  21253902.542   113733928.915        3227.211          44.000    21253898.111    88459730.384        2510.235          38.000  
R18  19195077.870   102464629.631         -51.826          46.000    19195076.798    79694714.585         -40.241          41.000  
E 3  26685331.165   140232350.530       -3107.140          39.000                                                                  
E 5  24154445.414   126932474.113       -1190.940          43.000                                                                  
E 9  23606005.144   124050399.998        1636.250          42.000                                                                  
E15  25022019.912   131491605.470       -2173.537          41.000                                                                  
> 2020  7 18 22 58 43.2000000  0 18
G10  22281662.538   117090926.064       -2699.467          43.000    22281660.376    91239681.712       -2103.285          41.000  
G15  21483116.827   112894545.695         615.006          43.000    21483112.342    87969775.297         478.989          38.000  
G16  23268277.322   122275615.365        1650.697          40.000    23268273.230    95279699.850        1286.260          30.000  
G18  20391584.271   107158500.975        1021.599          44.000    20391579.250    83500130.747         796.056          37.000  
G20  20212456.107   106217174.575       -1002.343          43.000    20212450.568    82766630.641        -781.046          37.000  
G21  21845258.737   114797603.100       -1737.388          44.000    21845253.144    89452690.140       -1353.802          36.000  
G23  20479673.140   107621406.387       -1274.789          43.000    20479668.976    83860840.902        -993.335          37.000  
G26  24432320.801   128392533.005        2968.056          38.000    24432319.997   100046260.629        2313.031          36.000  
G27  22498845.342   118232231.969       -2560.148          43.000    22498843.126    92129022.348       -1994.976          38.000  
R 2  20477373.772   109271196.327        2743.431          46.000    20477372.986    84988707.941        2133.801          40.000  
R 3  19450538.194   104120250.662       -1413.167          46.000    19450531.797    80982417.953       -1099.229          41.000  
R 4  22535421.927   120676164.702       -4259.497          40.000    22535418.336    93859237.336       -3312.864          36.000  
R17  21254022.962   113734573.414        3226.630          44.000    21254018.566    88460231.619        2509.437          38.000  
R18  19195075.780   102464618.406         -51.856          46.000    19195074.779    79694705.845         -40.457          41.000  
E 3  26685212.711   140231728.095       -3107.989          39.000                                                                  
E 5  24154399.884   126932235.014       -1191.491          43.000                                                                  
E 9  23606067.311   124050726.393        1636.220          42.000                                                                  
E15  25021936.928   131491169.934       -2173.359          41.000                                                                  
> 2020  7 18 22 58 43.4000000  0 18
G10  22281559.666   117090385.383       -2700.383          43.000    22281557.451    91239260.400       -2104.127          41.000  
G15  21483140.146   112894668.064         615.446          44.000    21483135.285    87969870.645         479.697          38.000  
G16  23268339.918   122275944.736        1650.555          39.000    23268335.897    95279956.521        1286.148          30.000  
G18  20391622.975   107158704.653        1021.860          44.000    20391617.972    83500289.463         796.257          37.000  
G20  20212417.868   106216973.360       -1002.731          43.000    20212412.167    82766473.862        -781.344          37.000  
G21  21845192.479   114797254.954       -1737.015          44.000    21845187.315    89452418.832       -1353.511          35.000  
G23  20479624.465   107621150.691       -1275.168          44.000    20479620.248    83860641.645        -993.633          37.000  
G26  24432433.429   128393125.773        2966.894          38.000    24432433.197   100046722.541        2311.936          36.000  
G27  22498747.777   118231719.368       -2559.015          43.000    22498745.668    92128622.958       -1993.687          38.000  
R 2  20477476.572   109271744.496        2744.883          46.000    20477475.590    84989134.295        2134.837          40.000  
R 3  19450485.212   104119967.223       -1413.815          46.000    19450478.779    80982197.494       -1099.862          41.000  
R 4  22535262.661   120675311.857       -4261.367          41.000    22535259.051    93858574.019       -3314.480          36.000  
R17  21254143.220   113735217.957        3226.012          44.000    21254139.021    88460732.931        2508.856          39.000  
R18  19195073.725   102464607.391         -51.416          46.000    19195072.617    79694697.290         -40.002          41.000  
E 3  26685094.240   140231105.546       -3110.075          39.000                                                                  
E 5  24154354.300   126931995.977       -1191.983          44.000                                                                  
E 9  23606129.441   124051053.127        1637.644          42.000                                                                  
E15  25021854.106   131490734.667       -2172.457          41.000                                                                  
> 2020  7 18 22 58 43.6000000  0 18
G10  22281456.759   117089844.438       -2702.186          44.000    22281454.364    91238838.907       -2105.498          41.000  
G15  21483163.572   112894790.577         616.035          44.000    21483158.479    87969966.066         479.950          38.000  
G16  23268402.549   122276274.219        1650.928          39.000    23268398.635    95280213.247        1286.438          30.000  
G18  20391661.697   107158908.429        1022.322          44.000    20391656.623    83500448.243         796.615          37.000  
G20  20212379.556   106216772.128       -1003.223          43.000    20212373.892    82766317.041        -781.731          37.000  
G21  21845126.239   114796906.990       -1736.248          44.000    21845120.914    89452147.735       -1352.915          35.000  
G23  20479575.772   107620894.925       -1275.824          44.000    20479571.376    83860442.362        -994.147          37.000  
G26  24432546.022   128393718.285        2964.972          38.000    24432546.326   100047184.253        2310.282          36.000  
G27  22498650.284   118231207.084       -2557.406          43.000    22498647.978    92128223.741       -1993.076          38.000  
R 2  20477579.426   109272293.068        2747.126          46.000    20477578.426    84989560.921        2136.625          39.000  
R 3  19450432.213   104119683.680       -1414.895          47.000    19450425.905    80981976.972       -1100.376          41.000  
R 4  22535103.341   120674458.552       -4264.459          41.000    22535099.463    93857910.365       -3316.604          37.000  
R17  21254263.568   113735862.271        3224.403          44.000    21254259.404    88461234.094        2507.955          39.000  
R18  19195071.724   102464596.485         -50.992          46.000    19195070.598    79694688.826         -39.637          41.000  
E 3  26684975.607   140230482.504       -3113.413          39.000                                                                  
E 5  24154308.788   126931756.834       -1192.840          44.000                                                                  
E 9  23606191.554   124051380.183        1639.521          42.000                                                                  
E15  25021771.408   131490299.623       -2171.414          41.000                                                                  
> 2020  7 18 22 58 43.8000000  0 18
G10  22281327.030   117089162.780       -2704.264          44.000    22281325.064    91238307.729       -2107.271          41.000  
G15  21483160.284   112894772.900         617.078          44.000    21483155.209    87969952.315         480.829          38.000  
G16  23268438.483   122276463.297        1650.421          39.000    23268434.766    95280360.647        1286.043          30.000  
G18  20391673.741   107158971.846        1022.293          44.000    20391668.649    83500497.668         796.592          37.000  
G20  20212314.549   106216430.437       -1003.654          43.000    20212308.777    82766050.778        -782.066          37.000  
G21  21845033.320   114796418.786       -1735.592          44.000    21845027.870    89451767.307       -1352.409          35.000  
G23  20479500.400   107620498.601       -1277.061          44.000    20479495.843    83860133.522        -995.108          37.000  
G26  24432631.901   128394170.025        2962.595          38.000    24432632.061   100047536.268        2308.576          36.000  
G27  22498526.219   118230554.808       -2555.469          43.000    22498523.735    92127715.500       -1991.080          38.000  
R 2  20477655.566   109272699.473        2748.899          46.000    20477654.566    84989877.006        2138.048          39.000  
R 3  19450352.553   104119256.933       -1416.221          47.000    19450346.120    80981645.042       -1101.539          41.000  
R 4  22534917.127   120673461.521       -4268.333          41.000    22534913.161    93857134.881       -3319.927          37.000  
R17  21254357.166   113736363.329        3222.279          45.000    21254353.092    88461623.804        2506.204          40.000  
R18  19195042.919   102464443.104         -50.522          45.000    19195041.936    79694569.536         -39.361          41.000  
E 3  26684830.243   140229718.409       -3117.220          40.000                                                                  
E 5  24154236.525   126931377.067       -1194.479          44.000                                                                  
E 9  23606227.203   124051567.239        1641.309          42.000                                                                  
E15  25021661.996   131489724.471       -2170.147          41.000                                                                  
> 2020  7 18 22 58 44.0000000  0 18
G10  22281223.961   117088621.131       -2705.963          44.000    22281222.031    91237885.662       -2108.546          41.000  
G15  21483183.675   112894895.675         617.294          44.000    21483178.243    87970048.029         481.269          38.000  
G16  23268501.203   122276792.821        1650.786          39.000    23268497.522    95280617.323        1286.334          30.000  
G18  20391712.553   107159175.637        1022.203          44.000    20391707.567    83500656.451         796.525          37.000  
G20  20212276.202   106216228.926       -1004.564          43.000    20212270.287    82765893.763        -782.774          37.000  
G21  21844967.169   114796071.100       -1734.892          44.000    21844961.486    89451496.365       -1351.857          35.000  
G23  20479451.689   107620242.476       -1277.903          44.000    20479447.168    83859933.927        -995.764          37.000  
G26  24432744.458   128394761.760        2960.867          38.000    24432744.029   100047997.344        2307.078          36.000  
G27  22498428.833   118230043.264       -2553.629          43.000    22498426.295    92127316.898       -1989.575          37.000  
R 2  20477758.599   109273248.829        2751.007          46.000    20477757.670    84990304.290        2139.591          39.000  
R 3  19450299.482   104118972.912       -1417.466          47.000    19450293.102    80981424.159       -1102.403          41.000  
R 4  22534757.539   120672606.862       -4271.768          42.000    22534753.554    93856470.157       -3322.370          37.000  
R17  21254477.371   113737006.977        3220.618          45.000    21254473.297    88462124.391        2504.647          40.000  
R18  19195040.989   102464432.361         -50.329          45.000    19195039.952    79694561.169         -39.197          41.000  
E 3  26684711.378   140229093.978       -3120.722          40.000                                                                  
E 5  24154190.906   126931137.369       -1195.976          44.000                                                                  
E 9  23606289.691   124051895.026        1643.000          42.000                                                                  
E15  25021579.298   131489289.929       -2168.956          41.000                                                                  
> 2020  7 18 22 58 44.2000000  0 18
G10  22281120.928   117088079.344       -2707.573          44.000    22281119.088    91237463.491       -2109.805          41.000  
G15  21483207.083   112895018.834         618.225          44.000    21483201.401    87970143.951         481.611          38.000  
G16  23268563.942   122277122.530        1650.838          39.000    23268560.296    95280874.340        1286.371          30.000  
G18  20391751.382   107159379.681        1022.479          44.000    20391746.414    83500815.460         796.741          37.000  
G20  20212237.891   106216027.535       -1005.212          43.000    20212232.191    82765736.866        -783.281          37.000  
G21  21844901.089   114795723.723       -1734.504          44.000    21844895.210    89451225.716       -1351.559          35.000  
G23  20479402.960   107619986.364       -1278.872          44.000    20479398.314    83859734.381        -996.516          37.000  
G26  24432856.925   128395353.286        2958.870          38.000    24432856.568   100048458.271        2305.663          36.000  
G27  22498331.554   118229532.206       -2552.444          42.000    22498328.909    92126918.678       -1988.897          37.000  
R 2  20477861.650   109273798.736        2752.744          45.000    20477860.774    84990731.979        2140.827          39.000  
R 3  19450246.375   104118688.902       -1418.375          47.000    19450240.049    80981203.249       -1103.170          41.000  
R 4  22534597.862   120671751.852       -4274.279          42.000    22534593.948    93855805.140       -3324.412          38.000  
R17  21254597.665   113737650.549        3219.463          45.000    21254593.394    88462624.945        2503.887          39.000  
R18  19195039.041   102464421.880         -49.979          45.000    19195038.023    79694553.004         -39.004          41.000  
E 3  26684592.477   140228469.152       -3123.412          40.000                                                                  
E 5  24154145.304   126930897.692       -1196.677          44.000                                                                  
E 9  23606352.179   124052223.323        1644.431          42.000                                                                  
E15  25021496.671   131488855.766       -2168.150          41.000                                                                  
> 2020  7 18 22 58 44.4000000  0 18
G10  22281017.735   117087537.371       -2708.474          44.000    22281015.823    91237041.168       -2110.542          41.000  
G15  21483230.617   112895142.069         618.352          44.000    21483225.077    87970239.990         481.753          38.000  
G16  23268626.644   122277452.268        1650.428          39.000    23268622.927    95281131.271        1286.051          30.000  
G18  20391790.211   107159583.749        1022.211          44.000    20391785.280    83500974.491         796.533          37.000  
G20  20212199.562   106215826.111       -1005.420          43.000    20212194.040    82765579.895        -783.437          37.000  
G21  21844834.956   114795376.408       -1734.594          44.000    21844829.202    89450955.063       -1351.626          35.000  
G23  20479354.160   107619730.180       -1279.296          44.000    20479349.568    83859534.755        -996.852          37.000  
G26  24432969.411   128395944.624        2957.961          38.000    24432968.571   100048919.068        2305.216          36.000  
G27  22498234.328   118229021.348       -2552.272          42.000    22498231.684    92126520.579       -1988.815          37.000  
R 2  20477964.683   109274348.887        2753.176          46.000    20477963.986    84991159.895        2141.289          39.000  
R 3  19450193.268   104118404.785       -1418.955          47.000    19450187.103    80980982.288       -1103.528          41.000  
R 4  22534438.184   120670896.526       -4275.538          42.000    22534434.396    93855139.859       -3325.582          38.000  
R17  21254717.798   113738293.987        3218.785          45.000    21254713.492    88463125.403        2503.440          39.000  
R18  19195037.075   102464411.448         -50.090          45.000    19195036.003    79694544.903         -39.041          41.000  
E 3  26684473.523   140227843.980       -3124.842          40.000                                                                  
E 5  24154099.631   126930657.910       -1197.303          43.000                                                                  
E 9  23606414.684   124052551.870        1644.990          42.000                                                                  
E15  25021414.134   131488421.738       -2168.143          41.000                                                                  
> 2020  7 18 22 58 44.6000000  0 18
G10  22280914.488   117086995.091       -2708.422          44.000    22280912.593    91236618.589       -2110.527          41.000  
G15  21483254.043   112895265.054         617.882          44.000    21483248.521    87970335.857         481.574          38.000  
G16  23268689.293   122277781.730        1650.213          39.000    23268685.630    95281387.968        1285.887          30.000  
G18  20391829.005   107159787.576        1022.113          44.000    20391824.270    83501133.288         796.458          37.000  
G20  20212161.215   106215624.386       -1005.726          43.000    20212155.693    82765422.681        -783.676          37.000  
G21  21844768.787   114795028.825       -1734.877          44.000    21844762.818    89450684.219       -1351.850          35.000  
G23  20479305.360   107619473.713       -1279.282          44.000    20479300.982    83859334.915        -996.837          37.000  
G26  24433081.860   128396535.605        2957.931          37.000    24433080.663   100049379.569        2305.022          35.000  
G27  22498137.014   118228510.229       -2552.630          42.000    22498134.995    92126122.309       -1989.009          38.000  
R 2  20478067.751   109274898.779        2752.483          46.000    20478066.858    84991587.608        2140.857          39.000  
R 3  19450140.143   104118120.402       -1418.851          47.000    19450133.961    80980761.080       -1103.609          41.000  
R 4  22534278.399   120670040.850       -4275.351          42.000    22534274.790    93854474.333       -3325.403          38.000  
R17  21254837.932   113738937.129        3218.710          45.000    21254833.500    88463625.646        2503.581          39.000  
R18  19195035.128   102464400.758         -50.373          45.000    19195034.038    79694536.592         -39.235          41.000  
E 3  26684354.426   140227218.467       -3124.656          39.000                                                                  
E 5  24154053.904   126930417.822       -1197.444          43.000                                                                  
E 9  23606477.119   124052880.158        1644.446          42.000                                                                  
E15  25021331.437   131487987.401       -2168.620          41.000                                                                  
> 2020  7 18 22 58 44.8000000  0 18
G10  22280811.383   117086453.380       -2708.057          44.000    22280809.525    91236196.472       -2110.281          41.000  
G15  21483277.559   112895388.642         618.091          44.000    21483272.109    87970432.152         481.589          38.000  
G16  23268752.102   122278111.732        1650.488          39.000    23268748.403    95281645.074        1286.095          30.000  
G18  20391867.906   107159991.942        1022.166          44.000    20391863.117    83501292.551         796.495          37.000  
G20  20212122.886   106215423.241       -1005.301          43.000    20212117.221    82765265.972        -783.348          37.000  
G21  21844702.725   114794681.736       -1735.257          44.000    21844696.792    89450413.769       -1352.148          35.000  
G23  20479256.667   107619217.846       -1278.968          44.000    20479252.021    83859135.536        -996.598          37.000  
G26  24433194.310   128397127.213        2958.519          37.000    24433193.220   100049840.519        2305.163          35.000  
G27  22498039.770   118227999.643       -2552.876          42.000    22498038.055    92125724.432       -1989.470          38.000  
R 2  20478170.909   109275449.216        2752.252          46.000    20478169.926    84992015.735        2140.768          40.000  
R 3  19450087.037   104117836.644       -1418.367          47.000    19450081.086    80980540.391       -1103.111          41.000  
R 4  22534118.829   120669185.772       -4274.793          42.000    22534115.309    93853809.293       -3324.680          38.000  
R17  21254958.244   113739580.908        3219.433          45.000    21254953.670    88464126.307        2503.611          39.000  
R18  19195033.341   102464390.647         -50.314          46.000    19195032.233    79694528.725         -39.026          41.000  
E 3  26684235.508   140226593.594       -3123.665          39.000                                                                  
E 5  24154008.320   126930178.347       -1196.908          43.000                                                                  
E 9  23606539.607   124053208.957        1644.170          42.000                                                                  
E15  25021248.882   131487553.599       -2168.933          41.000                                                                  
> 2020  7 18 22 58 45.0000000  0 18
G10  22280734.797   117086050.900       -2707.856          43.000    22280732.956    91235882.881       -2109.954          41.000  
G15  21483327.645   112895651.374         618.054          44.000    21483321.874    87970636.911         481.857          38.000  
G16  23268841.340   122278580.880        1650.272          40.000    23268837.641    95282010.632        1285.932          30.000  
G18  20391933.271   107160335.472        1022.017          44.000    20391928.589    83501560.232         796.384          37.000  
G20  20212111.110   106215361.277       -1005.405          43.000    20212105.749    82765217.670        -783.430          37.000  
G21  21844663.163   114794473.801       -1735.481          44.000    21844657.695    89450251.732       -1352.319          35.000  
G23  20479234.455   107619101.143       -1278.946          44.000    20479229.756    83859044.610        -996.576          37.000  
G26  24433333.385   128397858.020        2958.527          37.000    24433332.599   100050409.979        2305.305          35.000  
G27  22497969.116   118227628.125       -2553.256          42.000    22497967.312    92125434.935       -1989.806          38.000  
R 2  20478300.513   109276140.889        2751.857          46.000    20478299.673    84992553.679        2140.269          40.000  
R 3  19450060.573   104117694.693       -1418.203          47.000    19450054.569    80980430.005       -1102.962          41.000  
R 4  22533985.633   120668472.664       -4274.078          42.000    22533981.916    93853254.647       -3324.270          37.000  
R17  21255105.127   113740366.459        3219.694          45.000    21255100.356    88464737.315        2504.297          39.000  
R18  19195057.875   102464521.896         -50.440          46.000    19195056.839    79694630.810         -39.093          41.000  
E 3  26684143.125   140226108.025       -3123.151          39.000                                                                  
E 5  24153989.254   126930078.083       -1196.759          44.000                                                                  
E 9  23606628.702   124053676.852        1643.678          42.000                                                                  
E15  25021192.755   131487258.868       -2169.507          41.000                                                                  
> 2020  7 18 22 58 45.2000000  0 18
G10  22280631.657   117085509.139       -2707.521          43.000    22280629.709    91235460.718       -2109.872          41.000  
G15  21483351.143   112895774.727         617.808          44.000    21483345.336    87970732.995         481.351          38.000  
G16  23268904.096   122278910.654        1649.929          39.000    23268900.415    95282267.639        1285.663          30.000  
G18  20391972.118   107160539.607        1021.778          44.000    20391967.508    83501719.312         796.197          37.000  
G20  20212072.835   106215159.974       -1005.301          43.000    20212067.277    82765060.847        -783.348          37.000  
G21  21844597.012   114794126.450       -1735.749          44.000    21844591.437    89449981.058       -1352.528          35.000  
G23  20479185.780   107618845.136       -1278.886          44.000    20479181.098    83858845.124        -996.532          37.000  
G26  24433445.924   128398449.499        2958.549          37.000    24433445.030   100050870.911        2305.588          35.000  
G27  22497871.909   118227117.158       -2553.815          42.000    22497870.158    92125036.823       -1989.888          38.000  
R 2  20478403.564   109276690.992        2751.410          46.000    20478402.813    84992981.528        2139.874          40.000  
R 3  19450007.591   104117410.842       -1417.980          47.000    19450001.533    80980209.207       -1102.909          41.000  
R 4  22533825.956   120667617.643       -4273.675          41.000    22533822.096    93852589.623       -3324.084          37.000  
R17  21255225.386   113741010.127        3219.522          44.000    21255220.436    88465237.941        2504.244          39.000  
R18  19195055.963   102464511.558         -50.574          46.000    19195054.802    79694622.758         -39.406          41.000  
E 3  26684024.100   140225483.193       -3122.801          39.000                                                                  
E 5  24153943.634   126929838.503       -1196.737          43.000                                                                  
E 9  23606691.279   124054005.323        1643.261          42.000                                                                  
E15  25021110.200   131486824.732       -2169.790          41.000                                                                  
> 2020  7 18 22 58 45.4000000  0 18
G10  22280528.517   117084967.299       -2707.148          43.000    22280526.819    91235038.503       -2109.477          41.000  
G15  21483374.605   112895897.924         617.830          44.000    21483368.887    87970828.982         481.314          38.000  
G16  23268966.817   122279240.330        1650.309          40.000    23268963.118    95282524.569        1285.961          30.000  
G18  20392010.948   107160743.636        1022.009          44.000    20392006.409    83501878.268         796.376          37.000  
G20  20212034.488   106214958.559       -1005.174          43.000    20212029.073    82764903.869        -783.251          37.000  
G21  21844530.861   114793778.947       -1735.689          44.000    21844525.411    89449710.292       -1352.483          35.000  
G23  20479137.033   107618589.015       -1278.641          44.000    20479132.388    83858645.549        -996.338          37.000  
G26  24433558.463   128399041.013        2959.578          37.000    24433557.480   100051331.783        2306.043          35.000  
G27  22497774.684   118226606.000       -2554.068          42.000    22497773.111    92124638.548       -1989.955          38.000  
R 2  20478506.561   109277240.834        2751.000          46.000    20478505.882    84993409.250        2139.971          40.000  
R 3  19449954.538   104117126.919       -1417.540          47.000    19449948.498    80979988.364       -1102.686          41.000  
R 4  22533666.403   120666762.645       -4272.849          41.000    22533662.704    93851924.630       -3323.257          37.000  
R17  21255345.591   113741653.754        3220.208          44.000    21255340.838    88465738.557        2504.438          39.000  
R18  19195054.015   102464501.075         -50.485          46.000    19195052.782    79694614.606         -39.369          41.000  
E 3  26683905.110   140224858.352       -3122.048          39.000                                                                  
E 5  24153897.997   126929598.832       -1196.386          43.000                                                                  
E 9  23606753.928   124054333.611        1643.209          42.000                                                                  
E15  25021027.556   131486390.427       -2169.924          41.000                                                                  
> 2020  7 18 22 58 45.6000000  0 18
G10  22280425.305   117084425.245       -2707.252          43.000    22280423.608    91234616.111       -2109.619          41.000  
G15  21483398.032   112896020.860         617.651          44.000    21483392.278    87970924.794         481.336          38.000  
G16  23269029.519   122279569.766        1649.981          39.000    23269025.856    95282781.206        1285.701          29.000  
G18  20392049.688   107160947.361        1021.562          44.000    20392045.328    83502037.032         796.026          37.000  
G20  20211996.123   106214756.901       -1005.279          43.000    20211990.691    82764746.751        -783.333          37.000  
G21  21844464.709   114793431.136       -1736.129          44.000    21844459.438    89449439.268       -1352.826          35.000  
G23  20479088.251   107618332.661       -1278.775          44.000    20479083.730    83858445.818        -996.442          37.000  
G26  24433670.948   128399632.240        2959.257          37.000    24433670.341   100051792.473        2305.804          35.000  
G27  22497677.369   118226094.585       -2554.337          43.000    22497675.725    92124239.971       -1990.700          38.000  
R 2  20478609.540   109277790.431        2750.822          46.000    20478608.897    84993836.652        2139.293          40.000  
R 3  19449901.449   104116842.757       -1417.645          47.000    19449895.499    80979767.395       -1102.484          41.000  
R 4  22533506.743   120665907.409       -4272.945          41.000    22533502.669    93851259.441       -3323.614          37.000  
R17  21255465.867   113742297.168        3220.230          44.000    21255460.900    88466239.023        2504.855          39.000  
R18  19195051.996   102464490.350         -50.753          46.000    19195050.763    79694606.265         -39.428          41.000  
E 3  26683786.156   140224233.305       -3122.175          39.000                                                                  
E 5  24153852.377   126929358.932       -1196.513          43.000                                                                  
E 9  23606816.344   124054661.547        1642.531          42.000                                                                  
E15  25020944.894   131485955.800       -2170.333          41.000                                                                  
> 2020  7 18 22 58 45.8000000  0 18
G10  22280322.165   117083883.364       -2707.178          43.000    22280320.396    91234193.894       -2109.432          41.000  
G15  21483421.458   112896143.998         617.748          44.000    21483415.972    87971020.735         481.410          38.000  
G16  23269092.311   122279899.372        1650.332          40.000    23269088.612    95283038.010        1285.976          30.000  
G18  20392088.481   107161151.284        1021.726          44.000    20392084.300    83502195.941         796.153          37.000  
G20  20211957.758   106214555.425       -1005.294          43.000    20211952.344    82764589.749        -783.341          37.000  
G21  21844398.558   114793083.474       -1736.345          44.000    21844393.108    89449168.361       -1352.990          35.000  
G23  20479039.486   107618076.522       -1278.589          44.000    20479035.109    83858246.202        -996.301          37.000  
G26  24433783.523   128400223.655        2959.011          37.000    24433782.737   100052253.343        2305.961          35.000  
G27  22497580.054   118225583.307       -2554.366          42.000    22497578.285    92123841.603       -1990.394          38.000  
R 2  20478712.537   109278340.162        2750.717          46.000    20478711.912    84994264.255        2139.740          40.000  
R 3  19449848.414   104116558.828       -1417.443          47.000    19449842.356    80979546.550       -1102.410          41.000  
R 4  22533347.084   120665052.420       -4272.774          41.000    22533343.224    93850594.492       -3322.981          37.000  
R17  21255586.215   113742940.770        3220.238          44.000    21255581.015    88466739.556        2504.639          38.000  
R18  19195050.084   102464479.810         -50.634          46.000    19195048.869    79694598.081         -39.197          41.000  
E 3  26683667.291   140223608.494       -3121.885          39.000                                                                  
E 5  24153806.793   126929119.223       -1196.416          43.000                                                                  
E 9  23606878.832   124054989.666        1642.680          42.000                                                                  
E15  25020862.196   131485521.326       -2170.386          41.000                                                                  
> 2020  7 18 22 58 46.0000000  0 18
G10  22280219.079   117083341.550       -2706.977          43.000    22280217.149    91233771.692       -2109.358          41.000  
G15  21483444.938   112896267.145         617.949          44.000    21483439.363    87971116.718         481.760          38.000  
G16  23269155.031   122280229.025        1650.406          39.000    23269151.243    95283294.953        1286.036          30.000  
G18  20392127.346   107161355.237        1021.838          44.000    20392123.201    83502354.881         796.242          37.000  
G20  20211919.429   106214354.001       -1005.085          43.000    20211914.086    82764432.828        -783.177          37.000  
G21  21844332.407   114792735.871       -1735.972          44.000    21844326.778    89448897.494       -1352.699          35.000  
G23  20478990.758   107617820.409       -1278.425          44.000    20478986.433    83858046.661        -996.174          37.000  
G26  24433896.134   128400815.137        2959.450          37.000    24433895.294   100052714.219        2306.102          35.000  
G27  22497482.614   118225072.015       -2554.419          42.000    22497480.881    92123443.209       -1990.275          38.000  
R 2  20478815.534   109278889.914        2750.866          46.000    20478814.855    84994691.817        2139.561          40.000  
R 3  19449795.414   104116274.941       -1417.227          47.000    19449789.321    80979325.731       -1102.321          41.000  
R 4  22533187.513   120664197.515       -4272.327          41.000    22533183.403    93849929.512       -3322.974          37.000  
R17  21255706.563   113743584.399        3220.439          44.000    21255701.077    88467240.180        2504.907          38.000  
R18  19195048.083   102464469.305         -50.314          46.000    19195046.850    79694589.899         -39.197          41.000  
E 3  26683548.426   140222983.709       -3121.765          39.000                                                                  
E 5  24153761.174   126928879.564       -1196.133          43.000                                                                  
E 9  23606941.320   124055317.799        1642.777          42.000                                                                  
E15  25020779.588   131485086.872       -2170.162          41.000                                                                  
> 2020  7 18 22 58 46.2000000  0 18
G10  22280115.939   117082799.672       -2707.632          43.000    22280113.723    91233349.445       -2109.820          40.000  
G15  21483468.400   112896390.245         617.428          44.000    21483462.825    87971212.586         480.844          38.000  
G16  23269217.805   122280558.602        1649.795          39.000    23269213.856    95283551.794        1285.559          30.000  
G18  20392166.140   107161559.111        1021.190          44.000    20392161.994    83502513.732         795.735          37.000  
G20  20211881.118   106214152.519       -1005.539          43.000    20211875.704    82764275.795        -783.534          37.000  
G21  21844266.238   114792388.177       -1736.620          44.000    21844260.627    89448626.582       -1353.205          35.000  
G23  20478941.957   107617564.246       -1278.894          43.000    20478937.669    83857847.024        -996.539          37.000  
G26  24434008.744   128401406.557        2959.086          37.000    24434008.369   100053175.069        2305.566          35.000  
G27  22497385.335   118224560.681       -2554.687          42.000    22497383.173    92123044.738       -1990.871          38.000  
R 2  20478918.460   109279439.624        2750.426          46.000    20478917.798    84995119.370        2139.219          40.000  
R 3  19449742.379   104115991.027       -1417.689          46.000    19449736.214    80979104.923       -1102.582          41.000  
R 4  22533027.836   120663342.527       -4272.945          41.000    22533023.690    93849264.547       -3323.242          37.000  
R17  21255826.804   113744227.987        3219.865          44.000    21255821.425    88467740.706        2504.222          38.000  
R18  19195046.046   102464458.750         -50.806          46.000    19195044.938    79694581.676         -39.622          41.000  
E 3  26683429.615   140222358.876       -3122.399          39.000                                                                  
E 5  24153715.554   126928639.851       -1196.737          43.000                                                                  
E 9  23607003.808   124055645.864        1642.263          42.000                                                                  
E15  25020696.961   131484652.333       -2170.766          41.000                                                                  
> 2020  7 18 22 58 46.4000000  0 18
G10  22280012.834   117082257.911       -2707.215          43.000    22280010.708    91232927.296       -2109.477          40.000  
G15  21483491.844   112896513.483         617.822          44.000    21483486.072    87971308.691         481.843          38.000  
G16  23269280.668   122280888.284        1650.183          39.000    23269276.326    95283808.632        1285.857          30.000  
G18  20392204.969   107161763.134        1021.763          44.000    20392200.788    83502672.684         796.182          37.000  
G20  20211842.753   106213951.145       -1005.107          43.000    20211837.410    82764118.885        -783.199          37.000  
G21  21844200.087   114792040.589       -1736.323          44.000    21844194.298    89448355.739       -1352.974          35.000  
G23  20478893.229   107617308.187       -1278.648          43.000    20478888.958    83857647.497        -996.345          37.000  
G26  24434121.301   128401998.033        2959.101          37.000    24434121.069   100053635.971        2305.819          35.000  
G27  22497288.182   118224049.430       -2554.657          42.000    22497285.626    92122646.369       -1990.610          38.000  
R 2  20479021.528   109279989.421        2750.605          46.000    20479020.742    84995547.017        2139.621          40.000  
R 3  19449689.326   104115707.236       -1417.182          46.000    19449683.179    80978884.189       -1102.261          41.000  
R 4  22532868.301   120662487.625       -4272.677          41.000    22532864.030    93848599.642       -3323.257          36.000  
R17  21255947.169   113744871.691        3220.163          44.000    21255941.737    88468241.379        2504.475          38.000  
R18  19195044.134   102464448.311         -50.500          46.000    19195042.990    79694573.580         -39.197          41.000  
E 3  26683310.732   140221734.132       -3122.190          39.000                                                                  
E 5  24153669.970   126928400.251       -1196.409          43.000                                                                  
E 9  23607066.243   124055974.035        1642.531          42.000                                                                  
E15  25020614.246   131484217.885       -2170.460          41.000                                                                  
> 2020  7 18 22 58 46.6000000  0 18
G10  22279909.748   117081716.256       -2706.939          43.000    22279907.854    91232505.216       -2109.402          41.000  
G15  21483515.360   112896636.797         617.629          44.000    21483509.534    87971404.741         481.246          38.000  
G16  23269343.388   122281218.081        1650.242          40.000    23269338.975    95284065.680        1285.909          30.000  
G18  20392243.799   107161967.225        1021.733          44.000    20392239.600    83502831.730         796.160          37.000  
G20  20211804.442   106213749.892       -1005.011          43.000    20211798.920    82763962.075        -783.125          37.000  
G21  21844133.936   114791693.062       -1736.427          44.000    21844128.236    89448084.952       -1353.057          35.000  
G23  20478844.482   107617052.262       -1278.432          43.000    20478840.229    83857448.086        -996.174          37.000  
G26  24434233.966   128402589.642        2959.309          37.000    24434233.555   100054096.932        2305.782          35.000  
G27  22497190.974   118223538.313       -2554.500          42.000    22497188.490    92122248.097       -1990.529          38.000  
R 2  20479124.632   109280539.322        2750.650          46.000    20479123.828    84995974.690        2139.293          40.000  
R 3  19449636.326   104115423.561       -1417.018          46.000    19449630.108    80978663.535       -1102.321          41.000  
R 4  22532708.659   120661632.816       -4272.692          41.000    22532704.353    93847934.776       -3323.481          36.000  
R17  21256067.517   113745515.499        3220.290          44.000    21256061.942    88468742.156        2504.878          38.000  
R18  19195042.186   102464437.983         -50.418          46.000    19195041.150    79694565.532         -39.272          41.000  
E 3  26683191.886   140221109.512       -3121.914          39.000                                                                  
E 5  24153624.386   126928160.753       -1196.237          43.000                                                                  
E 9  23607128.677   124056302.271        1642.359          42.000                                                                  
E15  25020531.566   131483783.499       -2170.691          41.000                                                                  
> 2020  7 18 22 58 46.8000000  0 18
G10  22279806.626   117081174.410       -2707.148          43.000    22279804.303    91232083.019       -2109.350          41.000  
G15  21483538.822   112896759.968         617.845          44.000    21483533.264    87971500.700         481.224          38.000  
G16  23269406.037   122281547.792        1650.480          39.000    23269401.749    95284322.528        1286.095          31.000  
G18  20392282.575   107162171.137        1021.525          44.000    20392278.322    83502990.615         795.996          37.000  
G20  20211766.077   106213548.472       -1005.070          43.000    20211760.770    82763805.131        -783.169          36.000  
G21  21844067.803   114791345.418       -1736.352          44.000    21844062.317    89447814.038       -1352.997          35.000  
G23  20478795.735   107616796.160       -1278.395          43.000    20478791.393    83857248.504        -996.152          37.000  
G26  24434346.576   128403181.088        2959.198          38.000    24434346.112   100054557.802        2305.737          35.000  
G27  22497093.677   118223027.009       -2554.687          42.000    22497091.533    92121849.682       -1990.558          38.000  
R 2  20479227.701   109281089.056        2750.672          46.000    20479226.807    84996402.247        2139.308          40.000  
R 3  19449583.380   104115139.743       -1416.996          46.000    19449577.055    80978442.792       -1102.202          41.000  
R 4  22532549.053   120660777.899       -4272.565          41.000    22532544.532    93847269.830       -3323.101          36.000  
R17  21256187.812   113746159.108        3220.029          44.000    21256182.183    88469242.717        2504.431          38.000  
R18  19195040.220   102464427.490         -50.411          46.000    19195039.148    79694557.395         -39.086          41.000  
E 3  26683072.949   140220484.706       -3122.011          39.000                                                                  
E 5  24153578.802   126927921.067       -1196.416          44.000                                                                  
E 9  23607191.076   124056630.313        1642.077          42.000                                                                  
E15  25020448.975   131483348.989       -2170.706          41.000                                                                  
> 2020  7 18 22 58 47.0000000  0 18
G10  22279703.522   117080632.829       -2706.612          43.000    22279701.270    91231660.986       -2109.119          41.000  
G15  21483562.319   112896883.326         618.068          44.000    21483557.048    87971596.857         481.857          39.000  
G16  23269468.793   122281877.660        1650.853          39.000    23269464.576    95284579.652        1286.386          31.000  
G18  20392321.368   107162375.248        1021.883          44.000    20392317.240    83503149.677         796.279          37.000  
G20  20211727.784   106213347.257       -1004.698          43.000    20211722.512    82763648.329        -782.879          37.000  
G21  21844001.652   114790997.956       -1735.965          44.000    21843996.202    89447543.272       -1352.699          36.000  
G23  20478747.006   107616540.262       -1278.186          44.000    20478742.807    83857049.132        -995.988          37.000  
G26  24434459.312   128403772.720        2959.480          38.000    24434459.097   100055018.910        2306.661          35.000  
G27  22496996.380   118222515.934       -2554.240          42.000    22496994.397    92121451.460       -1990.104          38.000  
R 2  20479330.752   109281638.972        2750.829          46.000    20479329.983    84996829.941        2139.367          40.000  
R 3  19449530.399   104114856.131       -1416.683          46.000    19449523.984    80978222.191       -1102.067          41.000  
R 4  22532389.661   120659923.174       -4272.252          41.000    22532385.033    93846605.015       -3323.004          36.000  
R17  21256308.088   113746802.946        3220.483          44.000    21256302.513    88469743.492        2504.967          38.000  
R18  19195038.308   102464417.212         -50.053          46.000    19195037.201    79694549.394         -38.937          41.000  
E 3  26682954.102   140219860.079       -3121.825          39.000                                                                  
E 5  24153533.272   126927681.596       -1196.066          44.000                                                                  
E 9  23607253.671   124056958.575        1642.583          43.000                                                                  
E15  25020366.277   131482914.652       -2170.333          41.000                                                                  
> 2020  7 18 22 58 47.2000000  0 18
G10  22279602.204   117080100.449       -2706.925          43.000    22279599.863    91231246.150       -2109.395          41.000  
G15  21483587.568   112897015.867         617.651          44.000    21483582.386    87971700.106         481.172          39.000  
G16  23269533.336   122282216.782        1650.600          40.000    23269529.012    95284843.882        1286.185          31.000  
G18  20392361.931   107162588.536        1021.376          44.000    20392357.892    83503315.875         795.884          37.000  
G20  20211691.242   106213155.267       -1004.854          43.000    20211686.006    82763498.718        -782.998          37.000  
G21  21843937.305   114790659.710       -1736.225          44.000    21843931.945    89447279.718       -1352.900          36.000  
G23  20478700.047   107616293.598       -1278.291          44.000    20478695.794    83856856.926        -996.070          37.000  
G26  24434573.727   128404373.581        2959.406          38.000    24434573.977   100055487.070        2305.990          35.000  
G27  22496900.870   118222014.085       -2554.463          43.000    22496898.833    92121060.441       -1990.037          38.000  
R 2  20479435.500   109282198.215        2750.464          46.000    20479434.803    84997264.944        2139.561          40.000  
R 3  19449479.168   104114581.917       -1416.810          46.000    19449472.718    80978008.941       -1102.015          41.000  
R 4  22532231.860   120659077.778       -4272.878          41.000    22532226.946    93845947.550       -3323.033          36.000  
R17  21256430.187   113747456.105        3219.888          44.000    21256424.576    88470251.467        2504.162          38.000  
R18  19195038.130   102464416.282         -50.388          46.000    19195036.968    79694548.678         -39.056          41.000  
E 3  26682836.917   140219244.670       -3122.175          39.000                                                                  
E 5  24153489.475   126927451.315       -1196.468          44.000                                                                  
E 9  23607317.803   124057295.981        1641.935          43.000                                                                  
E15  25020285.402   131482489.530       -2170.706          41.000                                                                  
> 2020  7 18 22 58 47.4000000  0 18
G10  22279499.189   117079558.999       -2707.044          43.000    22279496.902    91230824.218       -2109.544          41.000  
G15  21483610.995   112897139.351         617.599          44.000    21483606.081    87971796.337         481.276          39.000  
G16  23269596.146   122282546.902        1651.084          40.000    23269591.875    95285101.052        1286.565          30.000  
G18  20392400.742   107162792.785        1021.369          44.000    20392396.597    83503475.026         795.877          37.000  
G20  20211652.966   106212954.205       -1004.996          43.000    20211647.909    82763342.057        -783.110          37.000  
G21  21843871.261   114790312.395       -1736.337          44.000    21843865.865    89447009.053       -1352.990          36.000  
G23  20478651.407   107616037.881       -1278.305          44.000    20478647.136    83856657.671        -996.077          37.000  
G26  24434686.427   128404965.415        2959.316          38.000    24434686.785   100055948.223        2305.983          36.000  
G27  22496803.699   118221503.203       -2554.314          43.000    22496801.519    92120662.273       -1990.625          38.000  
R 2  20479538.497   109282748.268        2750.627          46.000    20479537.889    84997692.750        2139.084          40.000  
R 3  19449426.169   104114298.467       -1416.944          46.000    19449419.700    80977788.468       -1102.097          40.000  
R 4  22532072.182   120658223.220       -4272.565          41.000    22532067.465    93845282.843       -3323.436          36.000  
R17  21256550.517   113748100.021        3219.776          44.000    21256544.906    88470752.304        2504.237          38.000  
R18  19195036.218   102464406.169         -50.284          46.000    19195035.056    79694540.804         -39.078          41.000  
E 3  26682718.106   140218620.181       -3122.227          39.000                                                                  
E 5  24153443.981   126927211.955       -1196.655          44.000                                                                  
E 9  23607380.255   124057624.322        1641.860          43.000                                                                  
E15  25020202.793   131482055.373       -2170.602          41.000                                                                  
> 2020  7 18 22 58 47.6000000  0 18
G10  22279396.175   117079017.377       -2706.768          43.000    22279393.887    91230402.215       -2109.022          41.000  
G15  21483634.457   112897262.642         617.718          44.000    21483629.811    87971892.414         481.522          39.000  
G16  23269658.920   122282876.775        1650.853          40.000    23269654.631    95285358.185        1286.386          31.000  
G18  20392439.572   107162996.835        1021.615          44.000    20392435.390    83503634.025         796.063          37.000  
G20  20211614.691   106212752.975       -1004.720          43.000    20211609.509    82763185.245        -782.894          37.000  
G21  21843805.146   114789964.915       -1736.069          44.000    21843799.732    89446738.317       -1352.781          35.000  
G23  20478602.678   107615781.965       -1278.201          44.000    20478598.479    83856458.268        -995.995          37.000  
G26  24434799.002   128405557.050        2959.555          38.000    24434799.556   100056409.244        2306.199          36.000  
G27  22496706.527   118220992.122       -2554.158          43.000    22496704.115    92120264.017       -1990.491          38.000  
R 2  20479641.619   109283298.130        2750.710          46.000    20479641.083    84998120.402        2139.233          40.000  
R 3  19449373.205   104114014.852       -1416.728          46.000    19449366.701    80977567.895       -1101.799          41.000  
R 4  22531912.594   120657368.471       -4272.364          41.000    22531907.913    93844618.059       -3322.877          37.000  
R17  21256670.811   113748743.746        3220.014          44.000    21256665.236    88471252.993        2504.557          39.000  
R18  19195034.234   102464395.864         -50.083          46.000    19195033.037    79694532.757         -39.146          41.000  
E 3  26682599.224   140217995.501       -3122.101          39.000                                                                  
E 5  24153398.361   126926972.416       -1196.341          44.000                                                                  
E 9  23607442.636   124057952.464        1641.935          43.000                                                                  
E15  25020120.113   131481621.004       -2170.386          41.000                                                                  
> 2020  7 18 22 58 47.8000000  0 18
G10  22279293.195   117078475.959       -2707.021          43.000    22279290.926    91229980.329       -2109.276          41.000  
G15  21483657.936   112897386.150         617.629          44.000    21483653.576    87971988.650         481.202          39.000  
G16  23269721.747   122283206.894        1650.659          40.000    23269717.369    95285615.423        1286.230          31.000  
G18  20392478.401   107163201.052        1021.234          44.000    20392474.291    83503793.158         795.773          37.000  
G20  20211576.451   106212551.930       -1005.130          43.000    20211571.180    82763028.578        -783.214          37.000  
G21  21843738.995   114789617.620       -1736.307          44.000    21843733.795    89446467.684       -1352.960          35.000  
G23  20478554.003   107615526.272       -1278.395          44.000    20478549.786    83856259.017        -996.152          37.000  
G26  24434911.666   128406148.875        2959.198          38.000    24434912.238   100056870.377        2305.856          36.000  
G27  22496609.284   118220481.211       -2554.612          43.000    22496607.032    92119865.991       -1990.268          38.000  
R 2  20479744.616   109283848.180        2750.337          46.000    20479744.169    84998548.242        2139.337          40.000  
R 3  19449320.259   104113731.458       -1416.862          46.000    19449313.737    80977347.485       -1101.933          41.000  
R 4  22531752.845   120656513.883       -4272.878          41.000    22531748.342    93843953.354       -3323.436          36.000  
R17  21256791.159   113749387.674        3219.828          44.000    21256785.495    88471753.831        2504.207          39.000  
R18  19195032.322   102464385.735         -50.589          46.000    19195031.089    79694524.907         -39.153          41.000  
E 3  26682480.520   140217371.016       -3122.309          39.000                                                                  
E 5  24153352.813   126926733.067       -1196.587          44.000                                                                  
E 9  23607505.177   124058280.802        1641.741          43.000                                                                  
E15  25020037.541   131481186.793       -2171.026          41.000                                                                  
> 2020  7 18 22 58 48.0000000  0 18
G10  22279190.055   117077934.213       -2706.701          43.000    22279187.679    91229558.176       -2109.201          41.000  
G15  21483681.363   112897509.341         618.039          44.000    21483676.788    87972084.634         481.463          39.000  
G16  23269784.485   122283536.709        1651.129          40.000    23269780.197    95285872.323        1286.594          31.000  
G18  20392517.231   107163404.958        1021.421          44.000    20392512.960    83503952.030         795.914          37.000  
G20  20211538.068   106212350.542       -1004.839          43.000    20211532.869    82762871.659        -782.991          37.000  
G21  21843672.790   114789269.947       -1736.285          44.000    21843667.662    89446196.770       -1352.945          35.000  
G23  20478505.292   107615270.244       -1278.223          44.000    20478501.289    83856059.497        -996.017          37.000  
G26  24435024.241   128406740.348        2959.339          38.000    24435025.009   100057331.265        2305.923          36.000  
G27  22496511.969   118219970.027       -2553.993          43.000    22496509.575    92119467.639       -1989.962          38.000  
R 2  20479847.631   109284397.884        2750.710          46.000    20479847.077    84998975.829        2139.546          40.000  
R 3  19449267.260   104113447.744       -1416.482          46.000    19449260.737    80977126.788       -1101.844          41.000  
R 4  22531593.293   120655658.969       -4272.424          41.000    22531588.682    93843288.433       -3323.063          36.000  
R17  21256911.346   113750031.234        3219.805          44.000    21256905.664    88472254.392        2504.513          39.000  
R18  19195030.375   102464375.320         -50.098          46.000    19195029.195    79694516.788         -39.056          41.000  
E 3  26682361.655   140216746.180       -3122.272          39.000                                                                  
E 5  24153307.193   126926493.376       -1196.453          44.000                                                                  
E 9  23607567.612   124058608.800        1642.024          43.000                                                                  
E15  25019954.861   131480752.295       -2170.624          41.000                                                                  
> 2020  7 18 22 58 48.2000000  0 18
G10  22279086.951   117077392.414       -2707.453          43.000    22279084.485    91229136.013       -2109.567          41.000  
G15  21483704.753   112897632.532         617.547          43.000    21483700.072    87972180.631         481.388          39.000  
G16  23269847.241   122283866.517        1650.652          39.000    23269842.953    95286129.424        1286.230          31.000  
G18  20392556.060   107163608.844        1021.033          44.000    20392551.807    83504110.931         795.616          37.000  
G20  20211499.686   106212149.177       -1005.264          43.000    20211494.343    82762714.753        -783.318          37.000  
G21  21843606.639   114788922.282       -1736.792          44.000    21843601.528    89445925.885       -1353.340          35.000  
G23  20478456.581   107615014.202       -1278.633          44.000    20478452.668    83855859.976        -996.331          37.000  
G26  24435136.834   128407331.836        2959.063          38.000    24435137.781   100057792.174        2305.677          36.000  
G27  22496414.672   118219458.849       -2554.285          42.000    22496412.474    92119069.284       -1990.424          38.000  
R 2  20479950.610   109284947.637        2750.456          46.000    20479950.020    84999403.379        2138.942          39.000  
R 3  19449214.224   104113164.013       -1416.974          46.000    19449207.684    80976906.120       -1102.045          41.000  
R 4  22531433.722   120654804.023       -4273.199          41.000    22531428.915    93842623.514       -3323.503          36.000  
R17  21257031.605   113750674.840        3219.590          44.000    21257025.904    88472754.932        2503.976          38.000  
R18  19195028.445   102464364.893         -50.463          46.000    19195027.265    79694508.685         -39.309          41.000  
E 3  26682242.719   140216121.325       -3122.741          39.000                                                                  
E 5  24153261.592   126926253.675       -1196.975          44.000                                                                  
E 9  23607630.010   124058936.807        1641.592          42.000                                                                  
E15  25019872.199   131480317.771       -2171.041          41.000                                                                  
